t,x,y,z,vx_b,vy_b,vz_b,phi,theta,psi,p,q,r,ax_b,ay_b,az_b,cmd_roll,cmd_pitch,cmd_yaw,cmd_thrust,phase
0.0000,-0.00047,0.00006,0.02055,0.00000,0.00000,0.00000,-0.000268,-0.310680,-3.140503,0.000000,0.000000,-0.000000,-2.99897,-0.00250,-9.34036,0.000000,0.267009,0.000000,0.278324,settle
0.0255,-0.00047,0.00006,0.02055,0.00256,-0.00007,0.00059,-0.000268,-0.310680,-3.140503,0.001063,-0.007994,0.000965,44.18651,-4.78369,-14.71865,0.000000,0.267467,-0.000014,0.278354,settle
0.0477,-0.00055,0.00005,0.02062,0.01654,-0.00002,-0.01111,-0.000369,-0.310495,-3.140417,-0.000998,-0.137415,0.000427,92.05011,1.89334,-143.58176,0.000000,0.274724,-0.000006,0.277753,settle
0.0686,-0.00238,0.00005,0.01961,0.06047,0.00055,-0.06337,-0.000355,-0.293809,-3.140352,0.000652,-0.722225,-0.000256,-1.27517,0.01800,-10.75494,0.000000,0.293891,0.000004,0.273696,settle
0.0895,-0.00238,0.00005,0.01961,0.06047,0.00055,-0.06337,-0.000355,-0.293809,-3.140352,0.000652,-0.722225,-0.000256,-1.27517,0.01800,-10.75494,0.000000,0.293891,0.000004,0.273696,settle
0.1101,-0.00797,-0.00006,0.01741,0.18009,0.00350,-0.09640,-0.000317,-0.255724,-3.140363,0.002289,-0.899098,-0.000492,112.67342,0.13622,-28.63821,0.000000,0.271293,0.000007,0.269087,settle
0.1310,-0.01305,-0.00015,0.01632,0.21804,0.00345,-0.09930,-0.000242,-0.236100,-3.140373,0.003535,-0.776886,0.000165,0.03349,0.00022,-9.95679,0.000000,0.247426,-0.000002,0.267597,settle
0.1519,-0.01480,-0.00018,0.01601,0.25974,0.00338,-0.10562,-0.000221,-0.230982,-3.140372,0.001829,-0.664082,0.000529,121.06932,0.10821,-31.80058,0.000000,0.236563,-0.000008,0.266949,settle
0.1726,-0.01480,-0.00018,0.01601,0.25974,0.00338,-0.10562,-0.000221,-0.230982,-3.140372,0.001829,-0.664082,0.000529,121.06932,0.10821,-31.80058,0.000000,0.236563,-0.000008,0.266949,settle
0.1932,-0.01949,-0.00023,0.01527,0.33298,0.00327,-0.11469,-0.000192,-0.219671,-3.140365,0.000095,-0.612564,0.000211,156.16537,0.13713,-35.91846,0.000000,0.223890,-0.000003,0.265790,settle
0.2135,-0.03156,-0.00038,0.01382,0.36514,0.00322,-0.11156,-0.000184,-0.197443,-3.140358,0.000298,-0.623465,-0.000009,-0.29395,-0.00028,-9.82281,0.000000,0.205411,0.000000,0.264672,settle
0.2344,-0.04785,-0.00053,0.01238,0.42473,0.00313,-0.10914,-0.000165,-0.172917,-3.140367,0.000485,-0.598600,-0.000167,-0.02432,-0.00002,-9.84471,0.000000,0.182909,0.000003,0.263555,settle
0.2549,-0.05109,-0.00056,0.01214,0.45572,0.00309,-0.10922,-0.000162,-0.168770,-3.140368,0.000418,-0.525373,-0.000104,70.42151,0.06712,-10.99535,0.000000,0.175149,0.000002,0.263359,settle
0.2755,-0.05906,-0.00062,0.01161,0.47676,0.00306,-0.10430,-0.000154,-0.159787,-3.140372,0.000370,-0.479169,-0.000042,70.42151,0.06712,-10.99535,0.000000,0.164781,0.000001,0.263204,settle
0.2962,-0.05906,-0.00062,0.01161,0.50868,0.00301,-0.10138,-0.000154,-0.159787,-3.140372,0.000324,-0.453019,0.000033,54.01730,0.05326,-2.55033,0.000000,0.163283,-0.000000,0.263350,settle
0.3168,-0.09578,-0.00088,0.01052,0.56613,0.00293,-0.07774,-0.000131,-0.128451,-3.140374,0.000284,-0.436809,0.000029,41.98573,0.04247,-4.11488,0.000000,0.135423,-0.000000,0.263314,settle
0.3372,-0.09980,-0.00091,0.01051,0.57497,0.00292,-0.07493,-0.000130,-0.125432,-3.140375,0.000275,-0.434729,0.000020,0.02586,0.00003,-9.57200,0.000000,0.132709,-0.000000,0.263352,settle
0.3581,-0.10391,-0.00094,0.01051,0.59670,0.00289,-0.07056,-0.000128,-0.122560,-3.140375,0.000254,-0.384302,-0.000002,56.43887,0.05948,-2.69546,0.000000,0.127351,0.000000,0.263475,settle
0.3788,-0.10391,-0.00094,0.01051,0.59670,0.00289,-0.07056,-0.000128,-0.122560,-3.140375,0.000254,-0.384302,-0.000002,-0.95661,-0.00101,-9.72152,0.000000,0.127351,0.000000,0.263475,settle
0.3995,-0.13668,-0.00114,0.01090,0.65079,0.00282,-0.05337,-0.000115,-0.103792,-3.140378,0.000200,-0.337053,-0.000008,31.16983,0.03497,-6.65854,0.000000,0.108515,0.000000,0.263765,settle
0.4202,-0.14730,-0.00120,0.01115,0.66967,0.00279,-0.04810,-0.000112,-0.098316,-3.140378,0.000185,-0.321412,-0.000000,-0.12015,-0.00013,-9.70066,0.000000,0.102912,0.000000,0.263881,settle
0.4409,-0.16840,-0.00132,0.01174,0.69449,0.00276,-0.03945,-0.000106,-0.088621,-3.140380,0.000164,-0.282617,0.000004,0.00331,0.00002,-9.69228,0.000000,0.092357,-0.000000,0.264071,settle
0.4616,-0.16840,-0.00132,0.01174,0.69449,0.00276,-0.03945,-0.000106,-0.088621,-3.140380,0.000164,-0.282617,0.000004,23.81617,0.02908,-7.61703,0.000000,0.092357,-0.000000,0.264071,settle
0.4822,-0.16840,-0.00132,0.01174,0.69449,0.00276,-0.03945,-0.000106,-0.088621,-3.140380,0.000164,-0.282617,0.000004,56.28332,0.07384,-4.88529,0.000000,0.092357,-0.000000,0.264071,settle
0.5029,-0.20586,-0.00152,0.01306,0.73498,0.00272,-0.02599,-0.000098,-0.074813,-3.140381,0.000130,-0.246508,-0.000000,25.50283,0.03447,-7.31541,0.000000,0.078421,0.000000,0.264444,settle
0.5236,-0.23586,-0.00167,0.01430,0.75619,0.00270,-0.01688,-0.000093,-0.065260,-3.140382,0.000114,-0.219559,-0.000001,-0.02137,-0.00001,-9.73079,0.000000,0.068667,0.000000,0.264721,settle
0.5444,-0.24113,-0.00170,0.01453,0.76705,0.00269,-0.01478,-0.000092,-0.063772,-3.140382,0.000105,-0.199935,-0.000001,29.46786,0.04503,-7.20706,0.000000,0.066263,0.000000,0.264801,settle
0.5650,-0.24113,-0.00170,0.01453,0.76705,0.00269,-0.01478,-0.000092,-0.063772,-3.140382,0.000105,-0.199935,-0.000001,29.46786,0.04503,-7.20706,0.000000,0.066263,0.000000,0.264801,settle
0.5855,-0.25395,-0.00176,0.01510,0.78587,0.00267,-0.01076,-0.000091,-0.060421,-3.140382,0.000090,-0.177955,0.000000,45.15771,0.07438,-6.56862,0.000000,0.062124,-0.000000,0.264946,settle
0.6062,-0.28199,-0.00190,0.01641,0.79368,0.00267,-0.00510,-0.000087,-0.053929,-3.140383,0.000083,-0.175304,0.000000,22.80260,0.03894,-8.17086,0.000000,0.056393,-0.000000,0.265131,settle
0.6267,-0.30859,-0.00202,0.01769,0.80539,0.00266,0.00027,-0.000085,-0.048196,-3.140383,0.000076,-0.169340,0.000000,-0.10933,-0.00016,-9.77405,0.000000,0.051124,-0.000000,0.265321,settle
0.6475,-0.31988,-0.00208,0.01824,0.81611,0.00265,0.00272,-0.000084,-0.045927,-3.140383,0.000068,-0.150369,-0.000000,19.56128,0.03881,-8.77919,0.000000,0.048087,0.000000,0.265416,settle
0.6680,-0.31988,-0.00208,0.01824,0.81611,0.00265,0.00272,-0.000084,-0.045927,-3.140383,0.000068,-0.150369,-0.000000,19.56128,0.03881,-8.77919,0.000000,0.048087,0.000000,0.265416,settle
0.6885,-0.33375,-0.00214,0.01892,0.82919,0.00265,0.00530,-0.000082,-0.043369,-3.140384,0.000058,-0.129675,-0.000000,33.65601,0.07331,-8.86739,0.000000,0.044702,0.000000,0.265514,settle
0.7096,-0.36344,-0.00229,0.02040,0.83548,0.00265,0.00943,-0.000080,-0.038595,-3.140384,0.000054,-0.129785,-0.000000,17.01482,0.03938,-9.36309,0.000000,0.040606,0.000000,0.265669,settle
0.7304,-0.39121,-0.00240,0.02179,0.84247,0.00265,0.01314,-0.000078,-0.034337,-3.140385,0.000048,-0.125504,0.000000,-0.04188,-0.00004,-9.80116,0.000000,0.036701,-0.000000,0.265813,settle
0.7509,-0.40316,-0.00246,0.02239,0.84978,0.00265,0.01458,-0.000078,-0.032649,-3.140385,0.000044,-0.108718,0.000000,16.32033,0.04443,-9.96905,0.000000,0.034289,-0.000000,0.265871,settle
0.7714,-0.40316,-0.00246,0.02239,0.84978,0.00265,0.01458,-0.000078,-0.032649,-3.140385,0.000044,-0.108718,0.000000,16.32033,0.04443,-9.96905,0.000000,0.034289,-0.000000,0.265871,settle
0.7919,-0.41734,-0.00252,0.02309,0.85861,0.00265,0.01584,-0.000077,-0.030829,-3.140385,0.000037,-0.093002,0.000000,17.39626,0.05284,-10.64846,0.000000,0.031824,-0.000000,0.265918,settle
0.8126,-0.44813,-0.00267,0.02460,0.86284,0.00266,0.01856,-0.000076,-0.027398,-3.140385,0.000034,-0.093197,0.000000,10.09533,0.03432,-10.51288,0.000000,0.028886,-0.000000,0.266027,settle
0.8332,-0.48293,-0.00281,0.02631,0.86888,0.00266,0.02132,-0.000074,-0.023707,-3.140385,0.000030,-0.088810,-0.000000,-0.04159,-0.00004,-9.82222,0.000000,0.025463,0.000000,0.266140,settle
0.8540,-0.48910,-0.00284,0.02661,0.87232,0.00267,0.02150,-0.000074,-0.023099,-3.140385,0.000028,-0.079061,-0.000000,9.80341,0.03857,-10.94328,0.000000,0.024382,0.000000,0.266146,settle
0.8749,-0.48910,-0.00284,0.02661,0.87232,0.00267,0.02150,-0.000074,-0.023099,-3.140385,0.000028,-0.079061,-0.000000,9.80341,0.03857,-10.94328,0.000000,0.024382,0.000000,0.266146,settle
0.8958,-0.50375,-0.00290,0.02731,0.87819,0.00268,0.02180,-0.000074,-0.021767,-3.140385,0.000024,-0.066105,0.000000,5.34029,0.02536,-10.82996,0.000000,0.022494,-0.000000,0.266153,settle
0.9167,-0.55020,-0.00311,0.02947,0.88278,0.00269,0.02405,-0.000072,-0.018194,-3.140386,0.000020,-0.065901,-0.000000,6.15628,0.03134,-11.10777,0.000000,0.019412,0.000000,0.266247,settle
0.9373,-0.57086,-0.00319,0.03041,0.88474,0.00270,0.02495,-0.000072,-0.016682,-3.140386,0.000019,-0.063379,-0.000000,-0.03919,-0.00002,-9.83668,0.000000,0.017968,0.000000,0.266284,settle
0.9581,-0.57703,-0.00322,0.03068,0.88658,0.00270,0.02486,-0.000072,-0.016259,-3.140386,0.000018,-0.057363,-0.000000,6.80243,0.03987,-11.61848,0.000000,0.017260,0.000000,0.266278,settle
0.9784,-0.57703,-0.00322,0.03068,0.88658,0.00270,0.02486,-0.000072,-0.016259,-3.140386,0.000018,-0.057363,-0.000000,6.80243,0.03987,-11.61848,0.000000,0.017260,0.000000,0.266278,settle
0.9989,-0.62570,-0.00343,0.03279,0.89207,0.00273,0.02553,-0.000071,-0.013454,-3.140386,0.000015,-0.047510,0.000000,2.80832,0.02139,-10.93899,0.000000,0.014285,-0.000000,0.266300,settle
1.0192,-0.63906,-0.00349,0.03335,0.89341,0.00274,0.02560,-0.000071,-0.012739,-3.140386,0.000013,-0.045600,0.000000,-0.02167,0.00013,-9.85238,0.000000,0.013561,-0.000000,0.266302,settle
1.0401,-0.65996,-0.00357,0.03421,0.89458,0.00274,0.02596,-0.000070,-0.011718,-3.140386,0.000012,-0.041713,0.000000,2.11246,0.02055,-10.95621,0.000000,0.012461,-0.000000,0.266316,settle
1.0608,-0.66617,-0.00360,0.03446,0.89568,0.00275,0.02566,-0.000070,-0.011436,-3.140386,0.000012,-0.039157,0.000000,2.11246,0.02055,-10.95621,0.000000,0.012072,-0.000000,0.266300,settle
1.0814,-0.68078,-0.00366,0.03504,0.89802,0.00277,0.02483,-0.000070,-0.010804,-3.140386,0.000010,-0.034120,-0.000000,4.81034,0.05752,-13.01522,0.000000,0.011241,0.000000,0.266257,settle
1.1021,-0.68078,-0.00366,0.03504,0.89802,0.00277,0.02483,-0.000070,-0.010804,-3.140386,0.000010,-0.034120,-0.000000,2.73638,0.03593,-11.80190,0.000000,0.011241,0.000000,0.266257,settle
1.1224,-0.74305,-0.00393,0.03742,0.89994,0.00279,0.02549,-0.000069,-0.008466,-3.140386,0.000008,-0.031611,-0.000000,-0.03218,0.00009,-9.84930,0.000000,0.009087,0.000000,0.266284,settle
1.1433,-0.74930,-0.00396,0.03765,0.90022,0.00280,0.02545,-0.000069,-0.008247,-3.140386,0.000008,-0.031457,0.000000,-0.04267,-0.00006,-9.84092,0.000000,0.008890,-0.000000,0.266281,settle
1.1639,-0.75594,-0.00398,0.03789,0.90092,0.00281,0.02501,-0.000069,-0.008016,-3.140387,0.000008,-0.029455,0.000000,2.06586,0.03964,-11.92738,0.000000,0.008577,-0.000000,0.266259,settle
1.1841,-0.75594,-0.00398,0.03789,0.90092,0.00281,0.02501,-0.000069,-0.008016,-3.140387,0.000008,-0.029455,0.000000,2.62565,0.06609,-13.24892,0.000000,0.008577,-0.000000,0.266259,settle
1.2049,-0.80348,-0.00419,0.03955,0.90231,0.00284,0.02453,-0.000069,-0.006632,-3.140387,0.000006,-0.023767,-0.000000,0.86442,0.02553,-11.15731,0.000000,0.007061,0.000000,0.266233,settle
1.2255,-0.81824,-0.00425,0.04005,0.90270,0.00285,0.02422,-0.000069,-0.006242,-3.140387,0.000005,-0.022742,-0.000000,-0.04006,-0.00001,-9.84181,0.000000,0.006668,0.000000,0.266216,settle
1.2480,-0.84645,-0.00437,0.04097,0.90313,0.00287,0.02385,-0.000069,-0.005560,-3.140387,0.000005,-0.019483,0.000000,0.79976,0.04669,-12.01922,0.000000,0.005895,-0.000000,0.266197,settle
1.2688,-0.84645,-0.00437,0.04097,0.90313,0.00287,0.02385,-0.000069,-0.005560,-3.140387,0.000005,-0.019483,0.000000,0.79976,0.04669,-12.01922,0.000000,0.005895,-0.000000,0.266197,settle
1.2893,-0.86168,-0.00442,0.04146,0.90342,0.00289,0.02312,-0.000069,-0.005230,-3.140387,0.000004,-0.016909,-0.000000,0.46097,0.05571,-12.25018,0.000000,0.005464,0.000000,0.266160,settle
1.3100,-0.90902,-0.00463,0.04292,0.90349,0.00292,0.02298,-0.000068,-0.004332,-3.140387,0.000003,-0.015978,-0.000000,0.12129,0.02964,-11.12781,0.000000,0.004638,0.000000,0.266151,settle
1.3308,-0.93043,-0.00472,0.04355,0.90346,0.00292,0.02299,-0.000068,-0.003959,-3.140387,0.000003,-0.015188,-0.000000,-0.04035,-0.00003,-9.83465,0.000000,0.004273,0.000000,0.266152,settle
1.3512,-0.93043,-0.00472,0.04355,0.90346,0.00292,0.02299,-0.000068,-0.003959,-3.140387,0.000003,-0.015188,-0.000000,-0.29147,0.03780,-11.29951,0.000000,0.004273,0.000000,0.266152,settle
1.3720,-0.93676,-0.00475,0.04374,0.90340,0.00294,0.02262,-0.000068,-0.003857,-3.140387,0.000003,-0.013389,-0.000000,-0.29147,0.03780,-11.29951,0.000000,0.004082,0.000000,0.266133,settle
1.3932,-0.98449,-0.00495,0.04510,0.90300,0.00297,0.02195,-0.000068,-0.003204,-3.140387,0.000002,-0.011669,-0.000000,-0.50727,0.03079,-11.01268,0.000000,0.003422,0.000000,0.266099,settle
1.4141,-0.98449,-0.00495,0.04510,0.90300,0.00297,0.02195,-0.000068,-0.003204,-3.140387,0.000002,-0.011669,-0.000000,-0.67699,0.03539,-11.13538,0.000000,0.003422,0.000000,0.266099,settle
1.4349,-1.02051,-0.00510,0.04607,0.90261,0.00299,0.02159,-0.000068,-0.002760,-3.140387,0.000002,-0.010305,0.000000,-0.04047,-0.00002,-9.83293,0.000000,0.002962,-0.000000,0.266080,settle
1.4554,-1.02688,-0.00513,0.04624,0.90233,0.00300,0.02123,-0.000068,-0.002689,-3.140387,0.000002,-0.009379,0.000000,-0.83789,0.03381,-10.97703,0.000000,0.002849,-0.000000,0.266063,settle
1.4757,-1.04219,-0.00519,0.04664,0.90173,0.00303,0.02065,-0.000068,-0.002530,-3.140387,0.000002,-0.008215,-0.000000,-0.83789,0.03381,-10.97703,0.000000,0.002645,0.000000,0.266033,settle
1.4963,-1.04219,-0.00519,0.04664,0.90173,0.00303,0.02065,-0.000068,-0.002530,-3.140387,0.000002,-0.008215,-0.000000,-1.09081,0.03556,-10.89023,0.000000,0.002645,0.000000,0.266033,settle
1.5169,-1.10492,-0.00547,0.04822,0.90090,0.00306,0.02037,-0.000068,-0.001964,-3.140387,0.000001,-0.007698,-0.000000,-1.19884,0.03602,-10.86570,0.000000,0.002129,0.000000,0.266019,settle
1.5374,-1.11117,-0.00550,0.04837,0.90075,0.00306,0.02028,-0.000068,-0.001911,-3.140387,0.000001,-0.007642,-0.000000,-0.04089,0.00000,-9.82927,0.000000,0.002080,0.000000,0.266015,settle
1.5580,-1.11742,-0.00553,0.04853,0.89992,0.00309,0.01967,-0.000068,-0.001860,-3.140387,0.000001,-0.006062,0.000000,-0.04089,0.00000,-9.82927,0.000000,0.001946,-0.000000,0.265984,settle
1.5785,-1.11742,-0.00553,0.04853,0.89992,0.00309,0.01967,-0.000068,-0.001860,-3.140387,0.000001,-0.006062,0.000000,-2.82902,0.07545,-11.95758,0.000000,0.001946,-0.000000,0.265984,settle
1.5996,-1.17074,-0.00578,0.04979,0.89913,0.00311,0.01946,-0.000068,-0.001498,-3.140387,0.000001,-0.005703,0.000000,-0.03998,-0.00002,-9.82636,0.000000,0.001614,-0.000000,0.265973,settle
1.6204,-1.17715,-0.00581,0.04993,0.89864,0.00312,0.01919,-0.000068,-0.001457,-3.140387,0.000001,-0.005365,-0.000000,-1.47910,0.03494,-10.69721,0.000000,0.001560,0.000000,0.265960,settle
1.6410,-1.17715,-0.00581,0.04993,0.89864,0.00312,0.01919,-0.000068,-0.001457,-3.140387,0.000001,-0.005365,-0.000000,-1.47910,0.03494,-10.69721,0.000000,0.001560,0.000000,0.265960,settle
1.6619,-1.19234,-0.00587,0.05028,0.89765,0.00315,0.01871,-0.000068,-0.001367,-3.140387,0.000001,-0.004526,-0.000000,-0.57580,0.01202,-10.11999,0.000000,0.001434,0.000000,0.265936,settle
1.6826,-1.23984,-0.00607,0.05134,0.89672,0.00317,0.01843,-0.000068,-0.001123,-3.140387,0.000001,-0.004433,-0.000000,-1.29836,0.02764,-10.47821,0.000000,0.001219,0.000000,0.265922,settle
1.7034,-1.26090,-0.00618,0.05179,0.89626,0.00318,0.01829,-0.000068,-0.001021,-3.140387,0.000001,-0.004254,0.000000,-0.03993,-0.00002,-9.82469,0.000000,0.001121,-0.000000,0.265915,settle
1.7241,-1.26090,-0.00618,0.05179,0.89626,0.00318,0.01829,-0.000068,-0.001021,-3.140387,0.000001,-0.004254,0.000000,-0.03993,-0.00002,-9.82469,0.000000,0.001121,-0.000000,0.265915,settle
1.7447,-1.26719,-0.00621,0.05192,0.89513,0.00321,0.01782,-0.000068,-0.000992,-3.140387,0.000001,-0.003300,0.000000,-2.48417,0.05045,-10.85627,0.000000,0.001042,-0.000000,0.265891,settle
1.7653,-1.32066,-0.00646,0.05304,0.89413,0.00323,0.01758,-0.000068,-0.000790,-3.140387,0.000001,-0.003215,-0.000000,-0.04002,-0.00001,-9.82313,0.000000,0.000864,0.000000,0.265879,settle
1.7858,-1.32066,-0.00646,0.05304,0.89413,0.00323,0.01758,-0.000068,-0.000790,-3.140387,0.000001,-0.003215,-0.000000,-0.04002,-0.00001,-9.82313,0.000000,0.000864,0.000000,0.265879,settle
1.8063,-1.32687,-0.00649,0.05316,0.89294,0.00326,0.01717,-0.000068,-0.000768,-3.140387,0.000000,-0.002614,-0.000000,-2.60777,0.05007,-10.70984,0.000000,0.000810,0.000000,0.265859,settle
1.8270,-1.37414,-0.00672,0.05411,0.89213,0.00328,0.01703,-0.000068,-0.000627,-3.140387,0.000000,-0.002429,-0.000000,-0.04037,-0.00000,-9.82049,0.000000,0.000678,0.000000,0.265852,settle
1.8474,-1.38035,-0.00675,0.05423,0.89189,0.00328,0.01698,-0.000068,-0.000611,-3.140387,0.000000,-0.002407,-0.000000,-0.04037,-0.00000,-9.82049,0.000000,0.000663,0.000000,0.265849,settle
1.8682,-1.38656,-0.00678,0.05435,0.89065,0.00331,0.01663,-0.000068,-0.000594,-3.140387,0.000000,-0.002035,0.000000,-2.70107,0.04984,-10.59743,0.000000,0.000627,-0.000000,0.265831,settle
1.8889,-1.41859,-0.00692,0.05497,0.89010,0.00332,0.01654,-0.000068,-0.000518,-3.140387,0.000000,-0.001934,0.000000,-1.82090,0.03313,-10.31461,0.000000,0.000556,-0.000000,0.265827,settle
1.9102,-1.43953,-0.00703,0.05537,0.88956,0.00333,0.01643,-0.000068,-0.000472,-3.140387,0.000000,-0.001879,-0.000000,-0.03927,-0.00002,-9.81925,0.000000,0.000514,0.000000,0.265822,settle
1.9310,-1.43953,-0.00703,0.05537,0.88956,0.00333,0.01643,-0.000068,-0.000472,-3.140387,0.000000,-0.001879,-0.000000,-0.03927,-0.00002,-9.81925,0.000000,0.000514,0.000000,0.265822,settle
1.9517,-1.47844,-0.00721,0.05610,0.88770,0.00337,0.01602,-0.000068,-0.000398,-3.140387,0.000000,-0.001528,-0.000000,-0.04621,0.00011,-9.82137,0.000000,0.000430,0.000000,0.265801,settle
1.9726,-1.49883,-0.00731,0.05647,0.88716,0.00338,0.01590,-0.000068,-0.000364,-3.140387,0.000000,-0.001523,-0.000000,-0.04020,-0.00000,-9.81994,0.000000,0.000400,0.000000,0.265795,settle
1.9936,-1.49883,-0.00731,0.05647,0.88716,0.00338,0.01590,-0.000068,-0.000364,-3.140387,0.000000,-0.001523,-0.000000,-0.04020,-0.00000,-9.81994,0.000000,0.000400,0.000000,0.265795,settle
2.0139,-1.53684,-0.00749,0.05716,0.88517,0.00342,0.01551,-0.000068,-0.000307,-3.140387,0.000000,-0.001188,0.000000,-2.58157,0.04512,-10.37781,0.000702,-0.039997,0.000262,0.265775,hover
2.0343,-1.55773,-0.00761,0.05753,0.88471,0.00343,0.01543,-0.000068,-0.000279,-3.140387,0.000000,-0.001191,0.000000,-0.03971,-0.00001,-9.81835,0.001751,-0.039981,0.000647,0.265771,hover
2.0555,-1.55773,-0.00761,0.05753,0.88471,0.00343,0.01543,-0.000068,-0.000279,-3.140387,0.000000,-0.001191,0.000000,-0.03971,-0.00001,-9.81835,0.002853,-0.039950,0.001045,0.265771,hover
2.0757,-1.56395,-0.00764,0.05765,0.88364,0.00345,0.01499,-0.000065,-0.000440,-3.140387,0.006797,0.103527,0.001604,-1.88467,-0.02008,-10.55879,0.003925,-0.039905,0.001426,0.265749,hover
2.0964,-1.61652,-0.00789,0.05857,0.88369,0.00331,0.00990,0.000300,-0.005927,-3.140283,0.007775,0.097572,0.002893,-0.04657,0.00058,-9.81687,0.005036,-0.039844,0.001815,0.265495,hover
2.1175,-1.61652,-0.00789,0.05857,0.88369,0.00331,0.00990,0.000300,-0.005927,-3.140283,0.007775,0.097572,0.002893,-0.04657,0.00058,-9.81687,0.006180,-0.039764,0.002210,0.265495,hover
2.1380,-1.62289,-0.00792,0.05868,0.88486,0.00313,0.00960,0.000359,-0.006607,-3.140262,0.014708,0.091025,0.004565,4.33151,-0.59594,-8.08464,0.007310,-0.039669,0.002594,0.265480,hover
2.1583,-1.66996,-0.00812,0.05950,0.88628,0.00272,0.00574,0.001112,-0.011487,-3.140024,0.016901,0.093135,0.005519,-0.03232,-0.00085,-9.78467,0.008439,-0.039558,0.002973,0.265287,hover
2.1791,-1.67613,-0.00815,0.05961,0.88679,0.00261,0.00530,0.001231,-0.012135,-3.139985,0.017255,0.093484,0.005731,-0.04751,0.00136,-9.79002,0.009606,-0.039425,0.003360,0.265265,hover
2.1995,-1.68230,-0.00818,0.05973,0.89010,0.00203,0.00578,0.001352,-0.012786,-3.139945,0.022588,0.093374,0.007084,8.78353,-1.47554,-6.82231,0.010763,-0.039275,0.003739,0.265289,hover
2.2200,-1.71453,-0.00832,0.06034,0.89092,0.00168,0.00302,0.002119,-0.016170,-3.139706,0.023107,0.093359,0.007327,-0.02413,-0.00230,-9.77069,0.011930,-0.039104,0.004118,0.265151,hover
2.2406,-1.73535,-0.00840,0.06076,0.89385,0.00098,0.00183,0.002694,-0.018344,-3.139527,0.025385,0.093333,0.008125,-0.04982,0.00227,-9.77888,0.013107,-0.038913,0.004496,0.265091,hover
2.2613,-1.73535,-0.00840,0.06076,0.89385,0.00098,0.00183,0.002694,-0.018344,-3.139527,0.025385,0.093333,0.008125,-0.04982,0.00227,-9.77888,0.014300,-0.038697,0.004876,0.265091,hover
2.2820,-1.77426,-0.00849,0.06159,0.90260,-0.00119,0.00030,0.003944,-0.022383,-3.139149,0.032693,0.092847,0.010198,16.71457,-3.47704,-5.53027,0.015489,-0.038461,0.005253,0.265015,hover
2.3026,-1.79562,-0.00851,0.06208,0.90499,-0.00196,-0.00119,0.004718,-0.024579,-3.138914,0.033724,0.092783,0.010587,-0.04333,0.00127,-9.76770,0.016676,-0.038201,0.005626,0.264941,hover
2.3232,-1.79562,-0.00851,0.06208,0.90499,-0.00196,-0.00119,0.004718,-0.024579,-3.138914,0.033724,0.092783,0.010587,-0.04333,0.00127,-9.76770,0.017864,-0.037918,0.005998,0.264941,hover
2.3441,-1.80191,-0.00851,0.06222,0.91254,-0.00389,-0.00015,0.004957,-0.025223,-3.138842,0.039849,0.091846,0.012115,22.65918,-5.71786,-4.96101,0.019066,-0.037605,0.006372,0.264993,hover
2.3649,-1.85613,-0.00842,0.06359,0.91991,-0.00654,-0.00373,0.007312,-0.030680,-3.138150,0.043011,0.091326,0.013144,-0.05851,0.00551,-9.76564,0.020255,-0.037269,0.006743,0.264813,hover
2.3855,-1.85613,-0.00842,0.06359,0.91991,-0.00654,-0.00373,0.007312,-0.030680,-3.138150,0.043011,0.091326,0.013144,-0.05851,0.00551,-9.76564,0.021428,-0.036909,0.007107,0.264813,hover
2.4059,-1.86258,-0.00839,0.06376,0.92958,-0.00947,-0.00264,0.007617,-0.031317,-3.138061,0.051335,0.089218,0.015172,27.55014,-8.29655,-4.92383,0.022581,-0.036525,0.007466,0.264868,hover
2.4265,-1.91176,-0.00805,0.06516,0.93664,-0.01250,-0.00586,0.010271,-0.036050,-3.137304,0.053349,0.088703,0.016221,-0.09938,0.01903,-9.76690,0.023726,-0.036113,0.007824,0.264707,hover
2.4469,-1.91828,-0.00799,0.06536,0.93878,-0.01332,-0.00613,0.010640,-0.036666,-3.137196,0.053733,0.088608,0.016418,-0.05061,0.00366,-9.76125,0.024852,-0.035676,0.008177,0.264693,hover
2.4674,-1.91828,-0.00799,0.06536,0.93878,-0.01332,-0.00613,0.010640,-0.036666,-3.137196,0.053733,0.088608,0.016418,24.80072,-8.80836,-5.85394,0.025961,-0.035210,0.008528,0.264693,hover
2.4878,-1.97484,-0.00722,0.06716,0.95870,-0.02152,-0.00786,0.014080,-0.041865,-3.136220,0.061615,0.085913,0.018290,0.01358,-0.01993,-9.73964,0.027045,-0.034718,0.008874,0.264607,hover
2.5086,-1.98160,-0.00710,0.06739,0.96125,-0.02263,-0.00805,0.014512,-0.042471,-3.136098,0.062036,0.085766,0.018476,-0.06472,0.00888,-9.75151,0.028132,-0.034184,0.009224,0.264598,hover
2.5289,-1.98859,-0.00696,0.06763,0.97522,-0.02843,-0.00651,0.014958,-0.043095,-3.135972,0.067359,0.083412,0.019811,-0.06472,0.00888,-9.75151,0.029165,-0.033635,0.009562,0.264675,hover
2.5497,-1.98859,-0.00696,0.06763,0.97522,-0.02843,-0.00651,0.014958,-0.043095,-3.135972,0.067359,0.083412,0.019811,19.72550,-8.31854,-7.32667,0.030192,-0.033042,0.009905,0.264675,hover
2.5704,-2.04707,-0.00555,0.06975,0.98745,-0.03498,-0.00961,0.018943,-0.048111,-3.134864,0.069829,0.082261,0.020771,-0.05149,0.00334,-9.75276,0.031182,-0.032421,0.010241,0.264519,hover
2.5914,-2.04707,-0.00555,0.06975,0.98745,-0.03498,-0.00961,0.018943,-0.048111,-3.134864,0.069829,0.082261,0.020771,-0.05149,0.00334,-9.75276,0.032150,-0.031759,0.010579,0.264519,hover
2.6120,-2.09012,-0.00412,0.07143,1.00977,-0.04648,-0.00994,0.022072,-0.051590,-3.133997,0.076141,0.078606,0.022604,19.58860,-9.34077,-7.47558,0.033062,-0.031076,0.010906,0.264503,hover
2.6328,-2.11379,-0.00318,0.07240,1.01669,-0.05052,-0.01076,0.023841,-0.053427,-3.133505,0.077660,0.077575,0.023053,-0.06100,0.00710,-9.74242,0.033942,-0.030354,0.011233,0.264462,hover
2.6531,-2.11379,-0.00318,0.07240,1.01669,-0.05052,-0.01076,0.023841,-0.053427,-3.133505,0.077660,0.077575,0.023053,-0.06100,0.00710,-9.74242,0.034754,-0.029619,0.011547,0.264462,hover
2.6738,-2.12086,-0.00288,0.07270,1.03372,-0.05960,-0.00897,0.024378,-0.053966,-3.133356,0.083834,0.072659,0.024832,74.77162,-38.99998,-1.67353,0.035537,-0.028835,0.011864,0.264552,hover
2.6941,-2.15789,-0.00112,0.07431,1.04274,-0.06554,-0.01033,0.027305,-0.056637,-3.132545,0.084282,0.072313,0.025457,-0.06550,0.00866,-9.74548,0.036255,-0.028034,0.012170,0.264484,hover
2.7146,-2.18266,0.00022,0.07543,1.04901,-0.06977,-0.01120,0.029273,-0.058368,-3.131988,0.084419,0.072172,0.025647,-0.06550,0.00866,-9.74548,0.036925,-0.027193,0.012475,0.264440,hover
2.7350,-2.18996,0.00065,0.07577,1.06767,-0.08094,-0.00944,0.029852,-0.058872,-3.131824,0.089033,0.067090,0.026766,42.45955,-24.71687,-6.09059,0.037532,-0.026327,0.012772,0.264528,hover
2.7556,-2.24652,0.00438,0.07847,1.08038,-0.09046,-0.01137,0.034467,-0.062488,-3.130520,0.090371,0.065439,0.027543,-0.15910,0.06347,-9.75505,0.038089,-0.025414,0.013069,0.264431,hover
2.7760,-2.25406,0.00494,0.07884,1.08415,-0.09308,-0.01139,0.035085,-0.062947,-3.130343,0.090596,0.065117,0.027723,-0.07626,0.01404,-9.74983,0.038574,-0.024483,0.013357,0.264431,hover
2.7965,-2.25406,0.00494,0.07884,1.08415,-0.09308,-0.01139,0.035085,-0.062947,-3.130343,0.090596,0.065117,0.027723,45.45311,-29.27058,-6.53614,0.038998,-0.023510,0.013643,0.264431,hover
2.8170,-2.26160,0.00552,0.07922,1.10412,-0.10639,-0.00952,0.035704,-0.063405,-3.130166,0.093169,0.060724,0.028835,29.00150,-19.05554,-7.80266,0.039350,-0.022507,0.013923,0.264524,hover
2.8380,-2.32699,0.01113,0.08259,1.12121,-0.12027,-0.01078,0.041109,-0.067054,-3.128592,0.094336,0.058420,0.029612,-0.09020,0.02208,-9.74390,0.039634,-0.021450,0.014204,0.264461,hover
2.8587,-2.32699,0.01113,0.08259,1.12121,-0.12027,-0.01078,0.041109,-0.067054,-3.128592,0.094336,0.058420,0.029612,-0.09020,0.02208,-9.74390,0.039838,-0.020371,0.014477,0.264461,hover
2.8792,-2.33539,0.01194,0.08304,1.14255,-0.13599,-0.00870,0.041803,-0.067493,-3.128387,0.096065,0.053227,0.030756,59.52488,-42.06236,-6.59026,0.039960,-0.019273,0.014740,0.264565,hover
2.8997,-2.39543,0.01830,0.08634,1.15658,-0.14868,-0.00953,0.046740,-0.070367,-3.126895,0.096507,0.051359,0.031314,-0.09445,0.02407,-9.74919,0.040000,-0.018144,0.014999,0.264524,hover
2.9201,-2.40348,0.01924,0.08679,1.16076,-0.15220,-0.00934,0.047398,-0.070727,-3.126692,0.096658,0.050357,0.031495,-0.09445,0.02407,-9.74919,0.039957,-0.016991,0.015250,0.264533,hover
2.9406,-2.41188,0.02022,0.08727,1.18315,-0.17034,-0.00703,0.048078,-0.071093,-3.126481,0.097049,0.042431,0.032939,54.67747,-42.21727,-7.70540,0.039827,-0.015801,0.015498,0.264649,hover
2.9615,-2.47469,0.02831,0.09092,1.19769,-0.18479,-0.00709,0.053102,-0.073456,-3.124850,0.096898,0.040301,0.033648,-0.06476,-0.00127,-9.75350,0.039604,-0.014564,0.015743,0.264645,hover
2.9823,-2.48305,0.02947,0.09142,1.20201,-0.18879,-0.00679,0.053759,-0.073746,-3.124630,0.096851,0.039940,0.033783,-0.06476,-0.00127,-9.75350,0.039287,-0.013299,0.015982,0.264661,hover
3.0026,-2.49145,0.03066,0.09192,1.22460,-0.20887,-0.00435,0.054415,-0.074034,-3.124410,0.095648,0.034047,0.034549,62.37010,-52.34892,-8.59740,0.038886,-0.012038,0.016209,0.264782,hover
3.0235,-2.53527,0.03726,0.09458,1.23607,-0.22105,-0.00380,0.057773,-0.075375,-3.123246,0.095196,0.032114,0.034912,-0.18143,0.09440,-9.76047,0.038378,-0.010716,0.016436,0.264810,hover
3.0443,-2.56461,0.04199,0.09640,1.24393,-0.22955,-0.00328,0.059964,-0.076175,-3.122461,0.094875,0.030991,0.035136,-0.08720,0.01372,-9.76064,0.037770,-0.009369,0.016657,0.264836,hover
3.0648,-2.57336,0.04346,0.09695,1.26718,-0.25212,-0.00067,0.060610,-0.076404,-3.122227,0.092231,0.024446,0.035992,61.06034,-55.45937,-9.89991,0.037078,-0.008026,0.016867,0.264966,hover
3.0855,-2.61926,0.05153,0.09985,1.27693,-0.26373,0.00018,0.063884,-0.077426,-3.120987,0.091430,0.022640,0.036337,33.37668,-30.79976,-10.10920,0.036275,-0.006639,0.017074,0.265009,hover
3.1061,-2.64941,0.05720,0.10180,1.28659,-0.27480,0.00125,0.065957,-0.077993,-3.120163,0.090729,0.021193,0.036626,-0.09327,0.01555,-9.76993,0.035379,-0.005242,0.017273,0.265063,hover
3.1266,-2.64941,0.05720,0.10180,1.28659,-0.27480,0.00125,0.065957,-0.077993,-3.120163,0.090729,0.021193,0.036626,-0.09327,0.01555,-9.76993,0.034390,-0.003835,0.017464,0.265063,hover
3.1473,-2.70590,0.06859,0.10549,1.31966,-0.31217,0.00536,0.069631,-0.078805,-3.118602,0.085548,0.012658,0.037704,-0.46371,0.37715,-9.76540,0.033286,-0.002389,0.017652,0.265268,hover
3.1679,-2.73695,0.07530,0.10755,1.32925,-0.32416,0.00681,0.071547,-0.079140,-3.117736,0.083926,0.010430,0.037953,-0.10648,0.02451,-9.78021,0.032095,-0.000943,0.017830,0.265340,hover
3.1884,-2.73695,0.07530,0.10755,1.32925,-0.32416,0.00681,0.071547,-0.079140,-3.117736,0.083926,0.010430,0.037953,-0.10648,0.02451,-9.78021,0.030806,0.000518,0.018003,0.265340,hover
3.2092,-2.74641,0.07740,0.10818,1.35269,-0.35116,0.00960,0.072112,-0.079224,-3.117471,0.075597,0.000193,0.038952,64.07182,-67.36549,-13.16701,0.029405,0.002008,0.018170,0.265480,hover
3.2298,-2.82773,0.09666,0.11366,1.37159,-0.37759,0.01342,0.076499,-0.079467,-3.115147,0.074861,-0.000750,0.039373,-0.12366,0.03881,-9.79295,0.027923,0.003492,0.018328,0.265671,hover
3.2503,-2.82773,0.09666,0.11366,1.37159,-0.37759,0.01342,0.076499,-0.079467,-3.115147,0.074861,-0.000750,0.039373,-0.12366,0.03881,-9.79295,0.026349,0.004984,0.018480,0.265671,hover
3.2710,-2.83777,0.09918,0.11434,1.39436,-0.40614,0.01616,0.077014,-0.079478,-3.114860,0.065390,-0.010191,0.039939,65.60469,-73.87996,-15.22377,0.024670,0.006495,0.018626,0.265808,hover
3.2914,-2.88770,0.11217,0.11774,1.40345,-0.42037,0.01858,0.079312,-0.079303,-3.113415,0.063065,-0.012474,0.040197,0.02047,-0.12893,-9.82440,0.022931,0.007985,0.018762,0.265929,hover
3.3118,-2.92066,0.12116,0.12000,1.41252,-0.43394,0.02063,0.080682,-0.079070,-3.112453,0.061399,-0.014020,0.040422,-0.14832,0.06350,-9.80963,0.021116,0.009470,0.018892,0.266031,hover
3.3323,-2.92066,0.12116,0.12000,1.41252,-0.43394,0.02063,0.080682,-0.079070,-3.112453,0.061399,-0.014020,0.040422,56.16708,-67.63659,-16.47912,0.019206,0.010967,0.019015,0.266031,hover
3.3528,-3.00750,0.14646,0.12593,1.44837,-0.48762,0.02750,0.083755,-0.078079,-3.109896,0.049206,-0.024215,0.041204,0.00705,-0.12819,-9.84433,0.017220,0.012460,0.019131,0.266375,hover
3.3732,-3.01766,0.14958,0.12662,1.45240,-0.49395,0.02833,0.084068,-0.077932,-3.109595,0.048499,-0.024787,0.041265,-0.09974,0.00073,-9.83162,0.015177,0.013937,0.019240,0.266417,hover
3.3937,-3.01766,0.14958,0.12662,1.45240,-0.49395,0.02833,0.084068,-0.077932,-3.109595,0.048499,-0.024787,0.041265,-0.09974,0.00073,-9.83162,0.013061,0.015410,0.019342,0.266417,hover
3.4150,-3.02801,0.15278,0.12732,1.47382,-0.52571,0.03061,0.084376,-0.077773,-3.109288,0.038350,-0.032380,0.041723,24.87307,-32.44580,-13.93664,0.010790,0.016934,0.019440,0.266530,hover
3.4358,-3.11672,0.18150,0.13332,1.48989,-0.55579,0.03608,0.086453,-0.076065,-3.106640,0.034126,-0.035419,0.041970,-0.13537,0.04034,-9.84798,0.008527,0.018398,0.019528,0.266804,hover
3.4563,-3.11672,0.18150,0.13332,1.48989,-0.55579,0.03608,0.086453,-0.076065,-3.106640,0.034126,-0.035419,0.041970,-0.13537,0.04034,-9.84798,0.006246,0.019825,0.019608,0.266804,hover
3.4770,-3.18277,0.20437,0.13773,1.51744,-0.60434,0.04137,0.087285,-0.074361,-3.104642,0.015569,-0.047620,0.042616,40.00962,-54.92702,-17.81143,0.003894,0.021249,0.019681,0.267069,hover
3.4975,-3.21863,0.21730,0.14009,1.52488,-0.61934,0.04372,0.087569,-0.073344,-3.103553,0.015290,-0.047805,0.042689,-0.13515,0.03497,-9.87250,0.001545,0.022628,0.019746,0.267186,hover
3.5178,-3.21863,0.21730,0.14009,1.52488,-0.61934,0.04372,0.087569,-0.073344,-3.103553,0.015290,-0.047805,0.042689,-0.13515,0.03497,-9.87250,-0.000808,0.023967,0.019803,0.267186,hover
3.5384,-3.22965,0.22136,0.14081,1.54343,-0.65216,0.04501,0.087646,-0.073027,-3.103219,0.000542,-0.056569,0.042919,55.42915,-81.14366,-23.67651,-0.003207,0.025291,0.019854,0.267250,hover
3.5590,-3.32312,0.25703,0.14679,1.55682,-0.68363,0.05058,0.087486,-0.069898,-3.100366,-0.005320,-0.059895,0.043076,-0.13285,0.02587,-9.89500,-0.005625,0.026588,0.019897,0.267529,hover
3.5793,-3.32312,0.25703,0.14679,1.55682,-0.68363,0.05058,0.087486,-0.069898,-3.100366,-0.005320,-0.059895,0.043076,-0.13285,0.02587,-9.89500,-0.007996,0.027822,0.019932,0.267529,hover
3.5996,-3.32312,0.25703,0.14679,1.55682,-0.68363,0.05058,0.087486,-0.069898,-3.100366,-0.005320,-0.059895,0.043076,-0.57142,0.68845,-9.77843,-0.010359,0.029018,0.019960,0.267529,hover
3.6205,-3.39219,0.28490,0.15105,1.57941,-0.73260,0.05449,0.086799,-0.067307,-3.098256,-0.019816,-0.067670,0.043268,-0.02992,-0.14264,-9.94508,-0.012759,0.030198,0.019981,0.267724,hover
3.6410,-3.42977,0.30060,0.15331,1.58526,-0.74764,0.05651,0.086228,-0.065803,-3.097109,-0.022425,-0.069008,0.043302,-0.14126,0.03303,-9.91167,-0.015098,0.031314,0.019994,0.267826,hover
3.6618,-3.42977,0.30060,0.15331,1.58526,-0.74764,0.05651,0.086228,-0.065803,-3.097109,-0.022425,-0.069008,0.043302,50.77924,-85.40018,-28.24808,-0.017411,0.032386,0.020000,0.267826,hover
3.6823,-3.50062,0.33110,0.15743,1.60507,-0.79603,0.05945,0.084742,-0.062786,-3.094950,-0.036978,-0.076167,0.043382,21.44287,-36.67793,-17.88484,-0.019655,0.033394,0.019998,0.267973,hover
3.7028,-3.53898,0.34814,0.15958,1.61002,-0.81077,0.06116,0.083776,-0.061084,-3.093786,-0.039339,-0.077277,0.043386,-0.13377,0.01417,-9.93367,-0.021829,0.034341,0.019988,0.268058,hover
3.7234,-3.53898,0.34814,0.15958,1.61002,-0.81077,0.06116,0.083776,-0.061084,-3.093786,-0.039339,-0.077277,0.043386,-0.13377,0.01417,-9.93367,-0.023929,0.035226,0.019971,0.268058,hover
3.7440,-3.55043,0.35329,0.16021,1.62292,-0.84190,0.06037,0.083470,-0.060568,-3.093440,-0.055909,-0.084629,0.043341,40.17651,-73.11102,-27.24087,-0.025961,0.036052,0.019947,0.268019,hover
3.7646,-3.65000,0.39937,0.16548,1.63073,-0.87183,0.06424,0.080041,-0.055766,-3.090435,-0.057453,-0.085303,0.043288,-0.05422,-0.13881,-9.98458,-0.027890,0.036805,0.019915,0.268212,hover
3.7850,-3.65000,0.39937,0.16548,1.63073,-0.87183,0.06424,0.080041,-0.055766,-3.090435,-0.057453,-0.085303,0.043288,-0.13989,0.01823,-9.94750,-0.029696,0.037480,0.019876,0.268212,hover
3.8054,-3.66164,0.40490,0.16606,1.64136,-0.90110,0.06277,0.079617,-0.055197,-3.090087,-0.069620,-0.090120,0.043149,20.81452,-41.55106,-20.63993,-0.031382,0.038080,0.019829,0.268138,hover
3.8258,-3.74957,0.44765,0.17031,1.64555,-0.92334,0.06564,0.075889,-0.050699,-3.087473,-0.073411,-0.091557,0.043030,-0.07658,-0.11585,-9.99102,-0.032948,0.038604,0.019776,0.268282,hover
3.8464,-3.76133,0.45349,0.17085,1.64707,-0.92920,0.06573,0.075358,-0.050086,-3.087126,-0.073949,-0.091750,0.043002,-0.16981,0.07309,-9.94260,-0.034398,0.039055,0.019714,0.268286,hover
3.8670,-3.76133,0.45349,0.17085,1.64707,-0.92920,0.06573,0.075358,-0.050086,-3.087126,-0.073949,-0.091750,0.043002,22.45851,-49.92126,-23.81393,-0.035694,0.039419,0.019645,0.268286,hover
3.8877,-3.77379,0.45971,0.17142,1.65567,-0.95704,0.06358,0.074793,-0.049436,-3.086760,-0.081160,-0.094144,0.042791,16.12007,-36.76677,-20.26067,-0.036848,0.039699,0.019567,0.268179,hover
3.9082,-3.87531,0.51152,0.17578,1.65938,-0.98348,0.06559,0.069821,-0.044028,-3.083812,-0.084575,-0.095214,0.042604,-0.16210,0.05480,-9.95544,-0.037821,0.039887,0.019484,0.268280,hover
3.9286,-3.88766,0.51797,0.17627,1.66572,-1.00891,0.06281,0.069188,-0.043363,-3.083457,-0.090211,-0.096551,0.042275,-0.16210,0.05480,-9.95544,-0.038620,0.039985,0.019394,0.268140,hover
3.9491,-3.88766,0.51797,0.17627,1.66572,-1.00891,0.06281,0.069188,-0.043363,-3.083457,-0.090211,-0.096551,0.042275,29.82376,-76.09516,-32.74821,-0.039248,0.039991,0.019295,0.268140,hover
3.9700,-3.99074,0.57276,0.18014,1.66749,-1.03344,0.06402,0.063674,-0.037766,-3.080548,-0.092013,-0.096860,0.042046,-0.15625,0.03718,-9.95472,-0.039695,0.039901,0.019188,0.268201,hover
3.9909,-3.99074,0.57276,0.18014,1.66749,-1.03344,0.06402,0.063674,-0.037766,-3.080548,-0.092013,-0.096860,0.042046,-0.15625,0.03718,-9.95472,-0.039946,0.039709,0.019073,0.268201,hover
4.0115,-4.00277,0.57930,0.18056,1.67161,-1.05615,0.06098,0.063015,-0.037110,-3.080213,-0.095688,-0.096349,0.041471,7.73486,-25.53918,-18.13383,-0.039993,0.039423,0.018953,0.268049,hover
4.0321,-4.09422,0.62966,0.18353,1.67125,-1.07379,0.06167,0.057899,-0.032160,-3.077717,-0.095951,-0.096391,0.041199,-0.15564,0.03049,-9.95683,-0.039838,0.039036,0.018825,0.268083,hover
4.0525,-4.10629,0.63640,0.18389,1.67148,-1.07821,0.06135,0.057223,-0.031509,-3.077393,-0.095924,-0.096274,0.041150,-0.15564,0.03049,-9.95683,-0.039483,0.038554,0.018692,0.268068,hover
4.0731,-4.11836,0.64316,0.18424,1.67348,-1.09814,0.05814,0.056546,-0.030859,-3.077070,-0.094868,-0.093795,0.040639,13.03886,-55.08476,-27.75323,-0.038919,0.037967,0.018551,0.267907,hover
4.0938,-4.20980,0.69518,0.18674,1.67177,-1.11377,0.05862,0.051494,-0.026045,-3.074670,-0.094112,-0.092807,0.040290,-0.15888,0.03834,-9.93626,-0.038142,0.037275,0.018401,0.267931,hover
4.1143,-4.22191,0.70215,0.18705,1.67161,-1.11765,0.05831,0.050833,-0.025417,-3.074358,-0.093918,-0.092613,0.040206,-0.15888,0.03834,-9.93626,-0.037163,0.036486,0.018246,0.267916,hover
4.1353,-4.23441,0.70937,0.18735,1.67162,-1.13487,0.05521,0.050152,-0.024769,-3.074037,-0.089859,-0.089159,0.039640,5.79590,-43.99863,-24.65883,-0.035953,0.035578,0.018081,0.267761,hover
4.1561,-4.29742,0.74612,0.18882,1.66959,-1.14550,0.05508,0.046835,-0.021592,-3.072444,-0.088381,-0.087962,0.039364,-0.16633,0.10106,-9.91041,-0.034546,0.034574,0.017910,0.267754,hover
4.1767,-4.33934,0.77085,0.18971,1.66810,-1.15245,0.05498,0.044699,-0.019532,-3.071405,-0.087383,-0.087200,0.039198,-0.15883,0.02754,-9.93280,-0.032950,0.033479,0.017734,0.267749,hover
4.1972,-4.33934,0.77085,0.18971,1.66810,-1.15245,0.05498,0.044699,-0.019532,-3.071405,-0.087383,-0.087200,0.039198,-0.02186,-30.47559,-20.71112,-0.031165,0.032289,0.017552,0.267749,hover
4.2176,-4.41402,0.81555,0.19113,1.66341,-1.17609,0.05159,0.041122,-0.016012,-3.069591,-0.077906,-0.080547,0.038238,-0.82257,-17.28450,-16.38286,-0.029203,0.031009,0.017364,0.267580,hover
4.2385,-4.45520,0.84051,0.19182,1.66136,-1.18209,0.05128,0.039276,-0.014152,-3.068613,-0.076418,-0.079547,0.038046,-0.16022,0.04343,-9.93276,-0.027015,0.029603,0.017165,0.267564,hover
4.2589,-4.45520,0.84051,0.19182,1.66136,-1.18209,0.05128,0.039276,-0.014152,-3.068613,-0.076418,-0.079547,0.038046,-0.16022,0.04343,-9.93276,-0.024709,0.028138,0.016964,0.267564,hover
4.2793,-4.46730,0.84788,0.19201,1.65791,-1.19445,0.04815,0.038751,-0.013617,-3.068328,-0.060450,-0.069218,0.036947,-5.18544,-33.22540,-22.13346,-0.022249,0.026587,0.016758,0.267408,hover
4.2999,-4.57078,0.91161,0.19343,1.65184,-1.20753,0.04779,0.035034,-0.009525,-3.065980,-0.058885,-0.068204,0.036390,-0.15818,0.05498,-9.91107,-0.019623,0.024936,0.016543,0.267390,hover
4.3204,-4.57078,0.91161,0.19343,1.65184,-1.20753,0.04779,0.035034,-0.009525,-3.065980,-0.058885,-0.068204,0.036390,-0.15818,0.05498,-9.91107,-0.016873,0.023208,0.016323,0.267390,hover
4.3415,-4.58324,0.91937,0.19358,1.64696,-1.21821,0.04497,0.034618,-0.009050,-3.065703,-0.042314,-0.057722,0.035555,-8.09652,-24.72962,-19.08683,-0.013907,0.021340,0.016089,0.267249,hover
4.3621,-4.64652,0.95907,0.19425,1.64312,-1.22457,0.04523,0.032926,-0.006903,-3.064325,-0.038427,-0.055251,0.035177,-0.17764,-0.00106,-9.91683,-0.010918,0.019446,0.015855,0.267261,hover
4.3827,-4.68715,0.98479,0.19461,1.63985,-1.22988,0.04506,0.032055,-0.005658,-3.063463,-0.035549,-0.053428,0.034845,-0.16510,0.03548,-9.90320,-0.007843,0.017481,0.015616,0.267253,hover
4.4035,-4.68715,0.98479,0.19461,1.63985,-1.22988,0.04506,0.032055,-0.005658,-3.063463,-0.035549,-0.053428,0.034845,-10.45566,-21.51815,-18.09497,-0.004678,0.015437,0.015368,0.267253,hover
4.4244,-4.79070,1.05120,0.19531,1.62751,-1.24786,0.04287,0.030620,-0.002972,-3.061336,-0.015519,-0.040556,0.033426,-0.14049,0.08830,-9.89054,-0.001438,0.013314,0.015113,0.267143,hover
4.4450,-4.80270,1.05897,0.19538,1.62599,-1.24987,0.04258,0.030521,-0.002703,-3.061095,-0.014143,-0.039664,0.033299,-0.16349,0.04336,-9.90961,0.001784,0.011167,0.014856,0.267129,hover
4.4654,-4.81465,1.06674,0.19543,1.61918,-1.25847,0.03992,0.030427,-0.002438,-3.060857,0.001655,-0.029167,0.032352,-0.16349,0.04336,-9.90961,0.004975,0.008998,0.014596,0.266996,hover
4.4862,-4.81465,1.06674,0.19543,1.61918,-1.25847,0.03992,0.030427,-0.002438,-3.060857,0.001655,-0.029167,0.032352,-12.89249,-21.48622,-18.07856,0.008222,0.006737,0.014325,0.266996,hover
4.5069,-4.91738,1.13417,0.19574,1.61078,-1.26858,0.04058,0.030516,-0.000747,-3.058870,0.008957,-0.024227,0.031614,-0.16441,0.04476,-9.89088,0.011413,0.004455,0.014050,0.267029,hover
4.5274,-4.91738,1.13417,0.19574,1.61078,-1.26858,0.04058,0.030516,-0.000747,-3.058870,0.008957,-0.024227,0.031614,-0.16441,0.04476,-9.89088,0.014511,0.002170,0.013772,0.267029,hover
4.5485,-4.92926,1.14204,0.19576,1.60338,-1.27711,0.03840,0.030596,-0.000598,-3.058647,0.025548,-0.012540,0.030492,-10.76240,-16.98701,-15.80684,0.017617,-0.000204,0.013481,0.266920,hover
4.5695,-5.01980,1.20268,0.19577,1.59640,-1.28527,0.03941,0.031898,0.000056,-3.057003,0.030376,-0.009002,0.029932,-0.16178,0.05147,-9.89263,0.020593,-0.002574,0.013187,0.266970,hover
4.5902,-5.03160,1.21065,0.19576,1.59471,-1.28723,0.03928,0.032130,0.000096,-3.056795,0.033370,-0.006777,0.029746,-0.16178,0.05147,-9.89263,0.023415,-0.004931,0.012890,0.266964,hover
4.6108,-5.04344,1.21867,0.19574,1.58716,-1.29617,0.03721,0.032383,0.000122,-3.056588,0.054438,0.009940,0.028156,-11.26238,-19.01295,-15.86788,0.026056,-0.007257,0.012591,0.266861,hover
4.6321,-5.14375,1.28741,0.19542,1.57867,-1.30674,0.03835,0.035501,-0.000438,-3.054938,0.056311,0.011663,0.027363,-0.15756,0.06164,-9.88712,0.028614,-0.009657,0.012276,0.266918,hover
4.6529,-5.14375,1.28741,0.19542,1.57867,-1.30674,0.03835,0.035501,-0.000438,-3.054938,0.056311,0.011663,0.027363,-0.15756,0.06164,-9.88712,0.030903,-0.011969,0.011965,0.266918,hover
4.6736,-5.15543,1.29552,0.19537,1.57115,-1.31698,0.03649,0.035900,-0.000532,-3.054752,0.071902,0.026361,0.026214,-12.14173,-25.07310,-16.69757,0.032974,-0.014247,0.011650,0.266824,hover
4.6939,-5.21590,1.33775,0.19503,1.56626,-1.32384,0.03733,0.038358,-0.001393,-3.053829,0.075604,0.030142,0.025578,-0.13595,0.11457,-9.86868,0.034778,-0.016445,0.011336,0.266867,hover
4.7147,-5.25566,1.36581,0.19477,1.56301,-1.32859,0.03791,0.040160,-0.002143,-3.053254,0.077157,0.031938,0.025206,-0.16137,0.05719,-9.88157,0.036367,-0.018639,0.011011,0.266895,hover
4.7354,-5.25566,1.36581,0.19477,1.56301,-1.32859,0.03791,0.040160,-0.002143,-3.053254,0.077157,0.031938,0.025206,-8.87346,-24.97236,-15.75138,0.037680,-0.020765,0.010684,0.266895,hover
4.7567,-5.32773,1.41737,0.19417,1.55190,-1.34725,0.03727,0.043718,-0.003859,-3.052272,0.087447,0.045439,0.023523,-0.18658,-0.02108,-9.90679,0.038741,-0.022891,0.010342,0.266864,hover
4.7775,-5.36656,1.44551,0.19379,1.54846,-1.35351,0.03755,0.045773,-0.004971,-3.051777,0.088904,0.047772,0.023109,-0.16011,0.06312,-9.88716,0.039471,-0.024883,0.010005,0.266877,hover
4.7980,-5.36656,1.44551,0.19379,1.54846,-1.35351,0.03755,0.045773,-0.004971,-3.051777,0.088904,0.047772,0.023109,-0.16011,0.06312,-9.88716,0.039888,-0.026767,0.009668,0.266877,hover
4.8187,-5.37812,1.45393,0.19368,1.54202,-1.36775,0.03607,0.046391,-0.005313,-3.051633,0.093488,0.057888,0.021859,-3.98786,-19.56640,-13.81862,0.039996,-0.028569,0.009325,0.266804,hover
4.8394,-5.47715,1.52714,0.19251,1.53552,-1.38228,0.03710,0.051956,-0.008828,-3.050505,0.094867,0.062498,0.020905,-0.16030,0.06645,-9.88259,0.039783,-0.030269,0.008979,0.266855,hover
4.8600,-5.47715,1.52714,0.19251,1.53552,-1.38228,0.03710,0.051956,-0.008828,-3.050505,0.094867,0.062498,0.020905,-0.16030,0.06645,-9.88259,0.039247,-0.031858,0.008629,0.266855,hover
4.8806,-5.48863,1.53575,0.19236,1.53016,-1.39876,0.03608,0.052615,-0.009280,-3.050385,0.094879,0.071566,0.019488,-4.12580,-37.86676,-16.48202,0.038391,-0.033322,0.008277,0.266804,hover
4.9013,-5.57566,1.60187,0.19113,1.52582,-1.41148,0.03669,0.057602,-0.013079,-3.049564,0.094218,0.074378,0.018795,-0.16075,0.07224,-9.87469,0.037210,-0.034665,0.007920,0.266834,hover
4.9220,-5.58715,1.61072,0.19096,1.52482,-1.41511,0.03664,0.058253,-0.013614,-3.049465,0.093524,0.075817,0.018561,-0.16075,0.07224,-9.87469,0.035713,-0.035871,0.007561,0.266832,hover
4.9427,-5.59871,1.61964,0.19078,1.52079,-1.43396,0.03604,0.058902,-0.014161,-3.049368,0.085508,0.085467,0.016585,-0.06936,-37.61319,-15.64175,0.033908,-0.036936,0.007199,0.266802,hover
4.9631,-5.68641,1.68818,0.18935,1.51760,-1.44824,0.03548,0.063471,-0.018712,-3.048760,0.082763,0.087354,0.015567,-0.16447,0.16288,-9.85639,0.031824,-0.037844,0.006837,0.266774,hover
4.9836,-5.69785,1.69725,0.18915,1.51694,-1.45226,0.03533,0.064040,-0.019327,-3.048692,0.082097,0.087682,0.015371,-0.16201,0.07418,-9.86905,0.029462,-0.038599,0.006473,0.266766,hover
5.0041,-5.70930,1.70633,0.18895,1.51460,-1.47319,0.03514,0.064606,-0.019942,-3.048625,0.071496,0.091919,0.014173,5.10135,-51.64445,-16.70235,0.026836,-0.039198,0.006107,0.266757,hover
5.0249,-5.76926,1.75444,0.18788,1.51330,-1.48304,0.03417,0.067294,-0.023282,-3.048318,0.068461,0.092967,0.013694,-0.14985,-0.03049,-9.87597,0.023919,-0.039639,0.005732,0.266708,hover
5.0457,-5.80727,1.78531,0.18717,1.51245,-1.49258,0.03332,0.068836,-0.025450,-3.048154,0.065752,0.093672,0.013240,-0.16382,0.08040,-9.86104,0.020780,-0.039907,0.005356,0.266666,hover
5.0660,-5.80727,1.78531,0.18717,1.51245,-1.49258,0.03332,0.068836,-0.025450,-3.048154,0.065752,0.093672,0.013240,8.28613,-43.59815,-14.75246,0.017512,-0.040000,0.004986,0.266666,hover
5.0865,-5.87906,1.84452,0.18579,1.51158,-1.52594,0.03172,0.071285,-0.029613,-3.047910,0.047282,0.095967,0.011226,4.32000,-20.97760,-12.21856,0.014039,-0.039920,0.004611,0.266586,hover
5.1068,-5.91770,1.87688,0.18503,1.51161,-1.53616,0.03032,0.072348,-0.031876,-3.047815,0.043919,0.096120,0.010729,-0.16338,0.07284,-9.85125,0.010465,-0.039668,0.004238,0.266516,hover
5.1275,-5.91770,1.87688,0.18503,1.51161,-1.53616,0.03032,0.072348,-0.031876,-3.047815,0.043919,0.096120,0.010729,-0.16338,0.07284,-9.85125,0.006695,-0.039231,0.003855,0.266516,hover
5.1482,-5.92918,1.88654,0.18480,1.51315,-1.55998,0.03106,0.072634,-0.032548,-3.047790,0.026429,0.095492,0.009217,14.62603,-52.29167,-14.56305,0.002861,-0.038614,0.003472,0.266553,hover
5.1689,-6.02781,1.97070,0.18284,1.51472,-1.58130,0.02619,0.074179,-0.038253,-3.047665,0.016758,0.094422,0.008218,-0.16849,0.08731,-9.83683,-0.001034,-0.037812,0.003086,0.266309,hover
5.1893,-6.02781,1.97070,0.18284,1.51472,-1.58130,0.02619,0.074179,-0.038253,-3.047665,0.016758,0.094422,0.008218,-0.16849,0.08731,-9.83683,-0.004865,-0.036850,0.002707,0.266309,hover
5.2100,-6.03934,1.98066,0.18261,1.51835,-1.60580,0.02723,0.074272,-0.038907,-3.047658,-0.010168,0.089041,0.006086,30.23953,-81.60416,-15.34953,-0.008739,-0.035693,0.002319,0.266362,hover
5.2307,-6.12687,2.05713,0.18088,1.52094,-1.62219,0.02089,0.073915,-0.043637,-3.047682,-0.011144,0.088950,0.005266,-0.17164,0.09129,-9.81963,-0.012536,-0.034364,0.001931,0.266044,hover
5.2513,-6.13848,2.06736,0.18066,1.52187,-1.62695,0.02020,0.073829,-0.044253,-3.047691,-0.012376,0.088509,0.005130,-0.17164,0.09129,-9.81963,-0.016204,-0.032875,0.001545,0.266010,hover
5.2719,-6.13848,2.06736,0.18066,1.52187,-1.62695,0.02020,0.073829,-0.044253,-3.047691,-0.012376,0.088509,0.005130,41.17249,-88.21215,-12.70344,-0.019742,-0.031216,0.001158,0.266010,hover
5.2927,-6.23883,2.15681,0.17877,1.53252,-1.67012,0.01434,0.071916,-0.049126,-3.047818,-0.044115,0.076731,0.002548,6.06304,-12.01347,-10.20766,-0.023131,-0.029382,0.000766,0.265717,hover
5.3131,-6.25328,2.16979,0.17852,1.53335,-1.67296,0.01302,0.071538,-0.049781,-3.047844,-0.044673,0.076453,0.002416,-0.28883,0.31799,-9.78636,-0.026248,-0.027429,0.000382,0.265651,hover
5.3338,-6.26500,2.18037,0.17831,1.54085,-1.69575,0.01483,0.071225,-0.050310,-3.047866,-0.059725,0.067733,0.001042,-0.28883,0.31799,-9.78636,-0.029153,-0.025307,-0.000008,0.265742,hover
5.3544,-6.26500,2.18037,0.17831,1.54085,-1.69575,0.01483,0.071225,-0.050310,-3.047866,-0.059725,0.067733,0.001042,-0.10783,-0.01889,-9.77465,-0.031766,-0.023056,-0.000397,0.265742,hover
5.3753,-6.36434,2.27071,0.17667,1.54799,-1.71490,0.00550,0.067724,-0.054250,-3.048087,-0.067441,0.062631,-0.000039,-0.16917,0.08342,-9.77737,-0.034093,-0.020646,-0.000790,0.265275,hover
5.3957,-6.36434,2.27071,0.17667,1.54799,-1.71490,0.00550,0.067724,-0.054250,-3.048087,-0.067441,0.062631,-0.000039,-0.16917,0.08342,-9.77737,-0.036031,-0.018171,-0.001175,0.265275,hover
5.4161,-6.43793,2.33835,0.17561,1.56161,-1.74552,0.00142,0.064457,-0.056588,-3.048291,-0.082202,0.048546,-0.002180,12.27335,-17.21698,-8.72347,-0.037603,-0.015600,-0.001559,0.265071,hover
5.4367,-6.47805,2.37544,0.17509,1.56600,-1.75410,-0.00211,0.062527,-0.057682,-3.048417,-0.084112,0.046065,-0.002625,-0.18735,0.10871,-9.74666,-0.038800,-0.012922,-0.001945,0.264895,hover
5.4570,-6.47805,2.37544,0.17509,1.56600,-1.75410,-0.00211,0.062527,-0.057682,-3.048417,-0.084112,0.046065,-0.002625,-0.18735,0.10871,-9.74666,-0.039589,-0.010187,-0.002326,0.264895,hover
5.4778,-6.49043,2.38691,0.17495,1.57677,-1.77394,0.00060,0.061917,-0.057996,-3.048457,-0.093443,0.026405,-0.004679,42.94388,-52.09374,-3.80581,-0.039970,-0.007330,-0.002715,0.265030,hover
5.4983,-6.59449,2.48372,0.17392,1.58687,-1.78953,-0.00840,0.056398,-0.059663,-3.048839,-0.094062,0.024118,-0.005770,-0.24445,0.17369,-9.73349,-0.039917,-0.004465,-0.003097,0.264580,hover
5.5190,-6.59449,2.48372,0.17392,1.58687,-1.78953,-0.00840,0.056398,-0.059663,-3.048839,-0.094062,0.024118,-0.005770,-0.19287,0.11331,-9.73424,-0.039425,-0.001530,-0.003482,0.264580,hover
5.5393,-6.59449,2.48372,0.17392,1.58687,-1.78953,-0.00840,0.056398,-0.059663,-3.048839,-0.094062,0.024118,-0.005770,25.45822,-26.11870,-5.59151,-0.038513,0.001376,-0.003859,0.264580,hover
5.5600,-6.69992,2.58229,0.17326,1.60701,-1.81736,-0.01262,0.050836,-0.060210,-3.049293,-0.092290,0.000501,-0.008184,-0.25429,0.17329,-9.72570,-0.037152,0.004338,-0.004241,0.264369,hover
5.5804,-6.71223,2.59383,0.17321,1.60940,-1.82035,-0.01300,0.050201,-0.060203,-3.049351,-0.091904,-0.000600,-0.008410,-0.18102,0.10143,-9.71579,-0.035403,0.007233,-0.004615,0.264350,hover
5.6009,-6.71223,2.59383,0.17321,1.60940,-1.82035,-0.01300,0.050201,-0.060203,-3.049351,-0.091904,-0.000600,-0.008410,33.33451,-29.43333,-3.47491,-0.033227,0.010139,-0.004991,0.264350,hover
5.6213,-6.72457,2.60538,0.17317,1.62135,-1.83545,-0.01006,0.049569,-0.060192,-3.049411,-0.084598,-0.014442,-0.009826,23.96129,-20.59424,-5.22900,-0.030689,0.012974,-0.005362,0.264497,hover
5.6417,-6.83078,2.70501,0.17300,1.63252,-1.84650,-0.01446,0.044596,-0.059294,-3.049960,-0.079989,-0.021608,-0.010856,-0.19266,0.11325,-9.71330,-0.027791,0.015753,-0.005732,0.264277,hover
5.6621,-6.84375,2.71717,0.17300,1.64433,-1.85958,-0.01164,0.044039,-0.059118,-3.050032,-0.066697,-0.035743,-0.012362,-0.19266,0.11325,-9.71330,-0.024580,0.018445,-0.006098,0.264418,hover
5.6830,-6.84375,2.71717,0.17300,1.64433,-1.85958,-0.01164,0.044039,-0.059118,-3.050032,-0.066697,-0.035743,-0.012362,36.36832,-28.62378,-3.30910,-0.020963,0.021123,-0.006473,0.264418,hover
5.7036,-6.95141,2.81821,0.17325,1.65542,-1.86885,-0.01279,0.040135,-0.056958,-3.050683,-0.060306,-0.041502,-0.013280,-0.21347,0.13083,-9.73774,-0.017153,0.023638,-0.006838,0.264361,hover
5.7241,-6.95141,2.81821,0.17325,1.65542,-1.86885,-0.01279,0.040135,-0.056958,-3.050683,-0.060306,-0.041502,-0.013280,-0.21347,0.13083,-9.73774,-0.013127,0.026025,-0.007200,0.264361,hover
5.7446,-7.03113,2.89301,0.17363,1.67206,-1.88418,-0.00835,0.038355,-0.054561,-3.051225,-0.029930,-0.062203,-0.015944,32.69249,-24.51443,-5.10317,-0.008928,0.028270,-0.007560,0.264583,hover
5.7650,-7.07371,2.93298,0.17389,1.67698,-1.88809,-0.00618,0.037676,-0.053109,-3.051544,-0.029414,-0.062459,-0.016288,-0.21045,0.13152,-9.74639,-0.004625,0.030349,-0.007915,0.264691,hover
5.7858,-7.07371,2.93298,0.17389,1.67698,-1.88809,-0.00618,0.037676,-0.053109,-3.051544,-0.029414,-0.062459,-0.016288,-0.21045,0.13152,-9.74639,-0.000177,0.032288,-0.008273,0.264691,hover
5.8061,-7.08703,2.94547,0.17398,1.68675,-1.89846,-0.00357,0.037482,-0.052647,-3.051646,-0.002619,-0.075543,-0.017661,27.42077,-22.08895,-6.57087,0.004187,0.033998,-0.008619,0.264821,hover
5.8265,-7.19754,3.04915,0.17483,1.69606,-1.90539,0.00527,0.037345,-0.048126,-3.052538,0.007756,-0.079991,-0.018750,-0.13574,0.07308,-9.75594,0.008559,0.035528,-0.008966,0.265264,hover
5.8469,-7.19754,3.04915,0.17483,1.69606,-1.90539,0.00527,0.037345,-0.048126,-3.052538,0.007756,-0.079991,-0.018750,-0.20325,0.13014,-9.76446,0.012830,0.036846,-0.009308,0.265264,hover
5.8676,-7.19754,3.04915,0.17483,1.69606,-1.90539,0.00527,0.037345,-0.048126,-3.052538,0.007756,-0.079991,-0.018750,-0.20325,0.13014,-9.76446,0.017006,0.037958,-0.009650,0.265264,hover
5.8880,-7.27816,3.12487,0.17556,1.70811,-1.91850,0.01502,0.038265,-0.044452,-3.053248,0.033501,-0.088626,-0.020517,13.20867,-14.29966,-9.49349,0.020947,0.038830,-0.009986,0.265751,hover
5.9085,-7.32230,3.16635,0.17597,1.71164,-1.92201,0.02063,0.039127,-0.042332,-3.053655,0.037984,-0.089899,-0.020953,-0.19937,0.12976,-9.79168,0.024652,0.039467,-0.010319,0.266032,hover
5.9290,-7.32230,3.16635,0.17597,1.71164,-1.92201,0.02063,0.039127,-0.042332,-3.053655,0.037984,-0.089899,-0.020953,-0.19937,0.12976,-9.79168,0.028045,0.039857,-0.010647,0.266032,hover
5.9494,-7.33551,3.17876,0.17610,1.71724,-1.93235,0.02250,0.039421,-0.041689,-3.053778,0.057251,-0.093995,-0.022328,13.55191,-20.19978,-11.94142,0.031083,0.039999,-0.010970,0.266125,hover
5.9700,-7.44770,3.28462,0.17716,1.72310,-1.93925,0.03845,0.042882,-0.036039,-3.054884,0.065902,-0.095086,-0.023200,-0.20276,0.13795,-9.83426,0.033769,0.039887,-0.011294,0.266923,hover
5.9909,-7.44770,3.28462,0.17716,1.72310,-1.93925,0.03845,0.042882,-0.036039,-3.054884,0.065902,-0.095086,-0.023200,-0.20276,0.13795,-9.83426,0.036040,0.039507,-0.011617,0.266923,hover
6.0120,-7.46098,3.29720,0.17729,1.72622,-1.95064,0.03943,0.043371,-0.035361,-3.055020,0.084960,-0.094579,-0.025009,14.37251,-38.30512,-18.90524,0.037838,0.038853,-0.011939,0.266971,hover
6.0325,-7.56023,3.39145,0.17811,1.72962,-1.95611,0.05536,0.047748,-0.030331,-3.056100,0.085370,-0.094620,-0.025678,-0.20784,0.16059,-9.87659,0.039077,0.037962,-0.012245,0.267768,hover
6.0531,-7.57336,3.40398,0.17821,1.73014,-1.95821,0.05730,0.048349,-0.029668,-3.056248,0.085863,-0.094332,-0.025789,-0.20784,0.16059,-9.87659,0.039806,0.036807,-0.012550,0.267865,hover
6.0735,-7.58719,3.41721,0.17831,1.73073,-1.97115,0.05712,0.048988,-0.028972,-3.056403,0.093561,-0.088589,-0.026940,6.03374,-40.97895,-23.86038,0.039994,0.035417,-0.012847,0.267856,hover
6.0943,-7.68648,3.51260,0.17886,1.73268,-1.97759,0.07265,0.053887,-0.024242,-3.057577,0.094684,-0.086164,-0.027723,-0.19544,0.07260,-9.95616,0.039629,0.033748,-0.013146,0.268633,hover
6.1148,-7.69965,3.52530,0.17891,1.73276,-1.97999,0.07432,0.054548,-0.023637,-3.057738,0.094640,-0.085709,-0.027907,-0.20443,0.16062,-9.92666,0.038722,0.031876,-0.013434,0.268716,hover
6.1353,-7.71336,3.53858,0.17895,1.73099,-1.99471,0.07272,0.055237,-0.023007,-3.057907,0.091611,-0.077544,-0.029001,-0.32726,-46.42579,-29.08979,0.037274,0.029777,-0.013717,0.268636,hover
6.1559,-7.71336,3.53858,0.17895,1.73099,-1.99471,0.07272,0.055237,-0.023007,-3.057907,0.091611,-0.077544,-0.029001,-0.86598,-23.84054,-20.05549,0.035291,0.027455,-0.013997,0.268636,hover
6.1762,-7.82562,3.64821,0.17904,1.73137,-2.00493,0.08753,0.060686,-0.018326,-3.059366,0.088849,-0.072781,-0.029780,-0.20294,0.16402,-9.97101,0.032839,0.024970,-0.014268,0.269377,hover
6.1964,-7.82562,3.64821,0.17904,1.73137,-2.00493,0.08753,0.060686,-0.018326,-3.059366,0.088849,-0.072781,-0.029780,-0.20294,0.16402,-9.97101,0.029922,0.022307,-0.014533,0.269377,hover
6.2169,-7.83945,3.66182,0.17902,1.72759,-2.02155,0.08448,0.061327,-0.017796,-3.059553,0.078024,-0.060909,-0.030897,-3.12998,-24.81563,-21.55648,0.026552,0.019462,-0.014795,0.269224,hover
6.2375,-7.93859,3.76029,0.17854,1.72737,-2.02999,0.09462,0.065463,-0.014476,-3.060967,0.073426,-0.056570,-0.031439,-0.20072,0.17754,-10.00322,0.022747,0.016435,-0.015054,0.269731,hover
6.2580,-7.95168,3.77342,0.17844,1.72676,-2.03304,0.09516,0.065956,-0.014087,-3.061162,0.070455,-0.054016,-0.031615,-0.20072,0.17754,-10.00322,0.018625,0.013304,-0.015306,0.269758,hover
6.2785,-7.96539,3.78720,0.17833,1.72152,-2.05106,0.09077,0.066449,-0.013698,-3.061368,0.044520,-0.033202,-0.033027,-9.31278,-56.97758,-37.25629,0.014206,0.010057,-0.015552,0.269539,hover
6.2994,-8.06410,3.88736,0.17715,1.72089,-2.06028,0.09496,0.068977,-0.011709,-3.062967,0.043708,-0.032466,-0.033576,-0.19880,0.18655,-10.02186,0.009494,0.006678,-0.015796,0.269748,hover
6.3200,-8.07715,3.90072,0.17695,1.72015,-2.06352,0.09473,0.069273,-0.011475,-3.063185,0.042178,-0.031373,-0.033663,-0.19880,0.18655,-10.02186,0.004662,0.003267,-0.016031,0.269736,hover
6.3406,-8.09090,3.91485,0.17673,1.71414,-2.08239,0.08934,0.069568,-0.011241,-3.063417,0.012656,-0.010115,-0.034544,-12.38612,-64.96444,-41.12083,-0.000238,-0.000167,-0.016260,0.269467,hover
6.3608,-8.20246,4.03084,0.17451,1.71279,-2.09525,0.08672,0.070369,-0.010477,-3.065433,0.001279,-0.001942,-0.035308,-0.20403,0.16081,-10.03046,-0.005087,-0.003566,-0.016480,0.269336,hover
6.3811,-8.20246,4.03084,0.17451,1.71279,-2.09525,0.08672,0.070369,-0.010477,-3.065433,0.001279,-0.001942,-0.035308,-0.20403,0.16081,-10.03046,-0.009882,-0.006954,-0.016693,0.269336,hover
6.4016,-8.20246,4.03084,0.17451,1.71279,-2.09525,0.08672,0.070369,-0.010477,-3.065433,0.001279,-0.001942,-0.035308,-0.20403,0.16081,-10.03046,-0.014583,-0.010330,-0.016903,0.269336,hover
6.4219,-8.28324,4.11638,0.17244,1.70689,-2.11977,0.07720,0.069823,-0.010721,-3.067008,-0.027218,0.018324,-0.036424,-0.22213,0.06659,-10.04524,-0.019050,-0.013621,-0.017104,0.268860,hover
6.4423,-8.32637,4.16254,0.17119,1.70614,-2.12617,0.07275,0.069140,-0.011131,-3.067887,-0.032206,0.021986,-0.036680,-0.19968,0.18616,-9.99532,-0.023249,-0.016826,-0.017300,0.268637,hover
6.4626,-8.32637,4.16254,0.17119,1.70614,-2.12617,0.07275,0.069140,-0.011131,-3.067887,-0.032206,0.021986,-0.036680,-0.19968,0.18616,-9.99532,-0.027091,-0.019905,-0.017489,0.268637,hover
6.4831,-8.33988,4.17710,0.17078,1.70090,-2.14377,0.06831,0.068881,-0.011292,-3.068167,-0.054034,0.038437,-0.037484,-4.75592,-28.13867,-18.52324,-0.030568,-0.022878,-0.017673,0.268415,hover
6.5040,-8.45027,4.29710,0.16716,1.70139,-2.15487,0.05498,0.065681,-0.013442,-3.070552,-0.063928,0.046564,-0.038007,-0.20075,0.18487,-9.92466,-0.033633,-0.025743,-0.017855,0.267749,hover
6.5246,-8.45027,4.29710,0.16716,1.70139,-2.15487,0.05498,0.065681,-0.013442,-3.070552,-0.063928,0.046564,-0.038007,-0.20075,0.18487,-9.92466,-0.036108,-0.028364,-0.018026,0.267749,hover
6.5452,-8.46355,4.31168,0.16670,1.69756,-2.17059,0.05196,0.065204,-0.013778,-3.070848,-0.084983,0.066377,-0.038984,-2.81703,-26.73158,-14.37354,-0.037999,-0.030758,-0.018190,0.267598,hover
6.5657,-8.57309,4.43295,0.16276,1.69978,-2.17973,0.03421,0.060328,-0.017447,-3.073395,-0.086000,0.067893,-0.039422,-0.20034,0.20174,-9.85795,-0.039278,-0.032913,-0.018348,0.266710,hover
6.5860,-8.57309,4.43295,0.16276,1.69978,-2.17973,0.03421,0.060328,-0.017447,-3.073395,-0.086000,0.067893,-0.039422,-0.20034,0.20174,-9.85795,-0.039920,-0.034800,-0.018497,0.266710,hover
6.6069,-8.58672,4.44818,0.16226,1.69793,-2.19330,0.03275,0.059692,-0.017939,-3.073718,-0.093617,0.081488,-0.039977,-0.61896,-34.97914,-9.54458,-0.039908,-0.036460,-0.018643,0.266637,hover
6.6272,-8.68324,4.55668,0.15872,1.70167,-2.19826,0.01606,0.054880,-0.022026,-3.076050,-0.094415,0.085303,-0.040367,-0.20060,0.11819,-9.78497,-0.039239,-0.037784,-0.018778,0.265803,hover
