t,x,y,z,vx_b,vy_b,vz_b,phi,theta,psi,p,q,r,ax_b,ay_b,az_b,cmd_roll,cmd_pitch,cmd_yaw,cmd_thrust,phase_tag,regime_id
0.00000,-0.00047,0.00006,0.02055,0.00000,0.00000,0.00000,-0.000262,-0.310702,-3.140497,0.000000,0.000000,-0.000000,-2.99919,-0.00245,-9.34029,0.000225,0.267029,0.000000,1.000000,settle,D1
0.01084,-0.00047,0.00006,0.02055,0.00000,0.00000,0.00000,-0.000262,-0.310702,-3.140497,0.000000,0.000000,-0.000000,-2.99919,-0.00245,-9.34029,0.000225,0.267029,0.000000,1.000000,settle,D1
0.02152,-0.00047,0.00006,0.02055,0.02490,0.00051,-0.00571,-0.000262,-0.310702,-3.140497,-0.001628,-0.084873,-0.000076,-0.08505,0.00003,-23.88643,0.000321,0.271892,0.000009,1.000000,settle,D1
0.03212,-0.00172,0.00006,0.01954,0.06293,0.00047,-0.15436,-0.000324,-0.304769,-3.140507,0.001330,-0.551218,-0.000043,-0.08505,0.00003,-23.88643,0.000201,0.293513,0.000022,1.000000,settle,D1
0.04282,-0.00172,0.00006,0.01954,0.06293,0.00047,-0.15436,-0.000324,-0.304769,-3.140507,0.001330,-0.551218,-0.000043,-0.08505,0.00003,-23.88643,0.000201,0.293513,0.000022,1.000000,settle,D1
0.05321,-0.00172,0.00006,0.01954,0.06293,0.00047,-0.15436,-0.000324,-0.304769,-3.140507,0.001330,-0.551218,-0.000043,-0.08505,0.00003,-23.88643,0.000201,0.293513,0.000022,1.000000,settle,D1
0.06417,-0.00172,0.00006,0.01954,0.06293,0.00047,-0.15436,-0.000324,-0.304769,-3.140507,0.001330,-0.551218,-0.000043,151.73511,0.00970,-3728.94263,0.000201,0.293513,0.000022,1.000000,settle,D1
0.07473,-0.00305,0.00006,0.01741,0.15468,0.00032,-1.42091,-0.000306,-0.299054,-3.140509,0.001400,-0.843866,0.000046,151.73511,0.00970,-3728.94263,0.000181,0.305368,0.000015,1.000000,settle,D1
0.08522,-0.01969,0.00006,-0.01970,0.24106,0.00010,-2.14583,-0.000236,-0.267778,-3.140517,0.000574,-0.703252,0.000050,0.90298,0.00067,-69.65483,0.000169,0.270432,0.000028,1.000000,settle,D1
0.09611,-0.04098,0.00006,-0.07472,0.31788,-0.00004,-2.89805,-0.000226,-0.252267,-3.140519,0.000270,-0.632602,0.000059,0.02378,-0.00008,-55.37639,0.000178,0.253053,0.000031,1.000000,settle,D1
0.10656,-0.04098,0.00006,-0.07472,0.31788,-0.00004,-2.89805,-0.000226,-0.252267,-3.140519,0.000270,-0.632602,0.000059,0.02378,-0.00008,-55.37639,0.000178,0.253053,0.000031,1.000000,settle,D1
0.11724,-0.04098,0.00006,-0.07472,0.31788,-0.00004,-2.89805,-0.000226,-0.252267,-3.140519,0.000270,-0.632602,0.000059,0.02378,-0.00008,-55.37639,0.000178,0.253053,0.000031,1.000000,settle,D1
0.12746,-0.04098,0.00006,-0.07472,0.31788,-0.00004,-2.89805,-0.000226,-0.252267,-3.140519,0.000270,-0.632602,0.000059,0.02378,-0.00008,-55.37639,0.000178,0.253053,0.000031,1.000000,settle,D1
0.13795,-0.04953,0.00006,-0.09787,0.40936,-0.00028,-4.74891,-0.000224,-0.247770,-3.140520,0.000344,-0.529800,0.000064,196.33850,0.20904,-6083.02441,0.000172,0.243298,0.000032,1.000000,settle,D1
0.14827,-0.04953,0.00006,-0.09787,0.40936,-0.00028,-4.74891,-0.000224,-0.247770,-3.140520,0.000344,-0.529800,0.000064,115.63641,0.10641,-2717.87183,0.000172,0.243298,0.000032,1.000000,settle,D1
0.15863,-0.13172,0.00006,-0.33584,0.60456,-0.00050,-5.92286,-0.000205,-0.219589,-3.140523,0.000441,-0.533348,0.000065,0.02801,0.00003,-55.84144,0.000151,0.219282,0.000036,0.939738,settle,D1
0.16957,-0.14539,0.00006,-0.37740,0.64247,-0.00056,-6.26788,-0.000202,-0.215887,-3.140523,0.000452,-0.533230,0.000064,0.02801,0.00003,-55.84144,0.000147,0.216093,0.000037,0.918109,settle,D1
0.18017,-0.14539,0.00006,-0.37740,0.64247,-0.00056,-6.26788,-0.000202,-0.215887,-3.140523,0.000452,-0.533230,0.000064,0.02801,0.00003,-55.84144,0.000147,0.216093,0.000037,0.918109,settle,D1
0.19055,-0.16098,0.00006,-0.42532,0.68494,-0.00062,-6.64035,-0.000199,-0.211855,-3.140523,0.000459,-0.534104,0.000064,-1.58363,-0.00146,-20.03754,0.000144,0.212678,0.000037,0.894456,settle,D1
0.20120,-0.16098,0.00006,-0.42532,0.68494,-0.00062,-6.64035,-0.000199,-0.211855,-3.140523,0.000459,-0.534104,0.000064,140.95361,0.13771,-4837.37402,0.000144,0.212678,0.000037,0.894456,settle,D1
0.21183,-0.16098,0.00006,-0.42532,0.73403,-0.00075,-8.01335,-0.000199,-0.211855,-3.140523,0.000430,-0.522146,0.000069,140.95361,0.13771,-4837.37402,0.000146,0.211993,0.000037,0.825806,settle,D1
0.22258,-0.28746,0.00006,-0.83045,1.00636,-0.00104,-9.04079,-0.000176,-0.184379,-3.140525,0.000396,-0.524445,0.000075,0.61453,0.00058,-61.50109,0.000128,0.188510,0.000038,0.732429,settle,D1
0.23307,-0.28746,0.00006,-0.83045,1.00636,-0.00104,-9.04079,-0.000176,-0.184379,-3.140525,0.000396,-0.524445,0.000075,0.04286,0.00005,-49.10895,0.000128,0.188510,0.000038,0.732429,settle,D1
0.24378,-0.30629,0.00006,-0.89284,1.05253,-0.00109,-9.32481,-0.000173,-0.180727,-3.140525,0.000390,-0.525835,0.000076,0.04286,0.00005,-49.10895,0.000126,0.185451,0.000039,0.711808,settle,D1
0.25414,-0.30629,0.00006,-0.89284,1.05253,-0.00109,-9.32481,-0.000173,-0.180727,-3.140525,0.000390,-0.525835,0.000076,0.04286,0.00005,-49.10895,0.000126,0.185451,0.000039,0.711808,settle,D1
0.26472,-0.32652,0.00006,-0.96033,1.14461,-0.00121,-10.33332,-0.000170,-0.176853,-3.140525,0.000366,-0.507054,0.000083,160.29431,0.17145,-2653.49097,0.000125,0.181046,0.000039,0.654445,settle,D1
0.27519,-0.32652,0.00006,-0.96033,1.14461,-0.00121,-10.33332,-0.000170,-0.176853,-3.140525,0.000366,-0.507054,0.000083,160.29431,0.17145,-2653.49097,0.000125,0.181046,0.000039,0.654445,settle,D1
0.28553,-0.43133,0.00006,-1.31418,1.35920,-0.00138,-10.58937,-0.000157,-0.158321,-3.140526,0.000352,-0.488689,0.000085,75.90375,0.07917,-883.18640,0.000114,0.164066,0.000039,0.605415,settle,D1
0.29596,-0.50262,0.00006,-1.55685,1.50122,-0.00150,-10.78683,-0.000149,-0.147001,-3.140525,0.000345,-0.477188,0.000085,-0.06759,0.00001,-22.96862,0.000108,0.153679,0.000038,0.570809,settle,D1
0.30651,-0.50262,0.00006,-1.55685,1.50122,-0.00150,-10.78683,-0.000149,-0.147001,-3.140525,0.000345,-0.477188,0.000085,-0.06759,0.00001,-22.96862,0.000108,0.153679,0.000038,0.570809,settle,D1
0.31688,-0.50262,0.00006,-1.55685,1.50122,-0.00150,-10.78683,-0.000149,-0.147001,-3.140525,0.000345,-0.477188,0.000085,-0.06759,0.00001,-22.96862,0.000108,0.153679,0.000038,0.570809,settle,D1
0.32730,-0.50262,0.00006,-1.55685,1.50122,-0.00150,-10.78683,-0.000149,-0.147001,-3.140525,0.000345,-0.477188,0.000085,-0.06759,0.00001,-22.96862,0.000108,0.153679,0.000038,0.570809,settle,D1
0.33836,-0.52473,0.00006,-1.63232,1.58090,-0.00158,-11.04252,-0.000146,-0.143718,-3.140525,0.000290,-0.394767,0.000083,112.73746,0.13175,-531.35938,0.000109,0.146135,0.000037,0.550348,settle,D1
0.34927,-0.63707,0.00006,-2.01467,1.76198,-0.00172,-11.11978,-0.000136,-0.129149,-3.140524,0.000289,-0.399809,0.000083,70.46873,0.08541,-409.24603,0.000100,0.133903,0.000036,0.507715,settle,D1
0.35998,-0.63707,0.00006,-2.01467,1.76198,-0.00172,-11.11978,-0.000136,-0.129149,-3.140524,0.000289,-0.399809,0.000083,-0.16621,-0.00002,-15.68644,0.000100,0.133903,0.000036,0.507715,settle,D1
0.37037,-0.71230,0.00006,-2.27029,1.87985,-0.00181,-11.18117,-0.000129,-0.119736,-3.140523,0.000292,-0.395783,0.000082,-0.16621,-0.00002,-15.68644,0.000094,0.125582,0.000035,0.478769,settle,D1
0.38114,-0.71230,0.00006,-2.27029,1.87985,-0.00181,-11.18117,-0.000129,-0.119736,-3.140523,0.000292,-0.395783,0.000082,-0.16621,-0.00002,-15.68644,0.000094,0.125582,0.000035,0.478769,settle,D1
0.39203,-0.71230,0.00006,-2.27029,1.87985,-0.00181,-11.18117,-0.000129,-0.119736,-3.140523,0.000292,-0.395783,0.000082,127.22870,0.17255,35.39204,0.000094,0.125582,0.000035,0.478769,settle,D1
0.40284,-0.73578,0.00006,-2.34994,1.94409,-0.00186,-11.22240,-0.000127,-0.117001,-3.140523,0.000246,-0.317356,0.000076,127.22870,0.17255,35.39204,0.000095,0.118738,0.000035,0.468655,settle,D1
0.41338,-0.73578,0.00006,-2.34994,1.94409,-0.00186,-11.22240,-0.000127,-0.117001,-3.140523,0.000246,-0.317356,0.000076,48.83374,0.06930,10.05967,0.000095,0.118738,0.000035,0.468655,settle,D1
0.42404,-0.90574,0.00006,-2.92258,2.15265,-0.00203,-11.18315,-0.000114,-0.100090,-3.140521,0.000250,-0.311021,0.000073,-0.04645,0.00024,-9.66298,0.000083,0.103841,0.000032,0.412863,settle,D1
0.43435,-0.92840,0.00006,-2.99837,2.18183,-0.00205,-11.18063,-0.000112,-0.097944,-3.140521,0.000251,-0.309129,0.000074,-0.24896,-0.00004,-10.05443,0.000082,0.101888,0.000032,0.405353,settle,D1
0.44482,-0.92840,0.00006,-2.99837,2.18183,-0.00205,-11.18063,-0.000112,-0.097944,-3.140521,0.000251,-0.309129,0.000074,-0.24896,-0.00004,-10.05443,0.000082,0.101888,0.000032,0.405353,settle,D1
0.45524,-0.92840,0.00006,-2.99837,2.18183,-0.00205,-11.18063,-0.000112,-0.097944,-3.140521,0.000251,-0.309129,0.000074,-0.24896,-0.00004,-10.05443,0.000082,0.101888,0.000032,0.405353,settle,D1
0.46579,-0.92840,0.00006,-2.99837,2.18183,-0.00205,-11.18063,-0.000112,-0.097944,-3.140521,0.000251,-0.309129,0.000074,68.97503,0.11363,409.40125,0.000082,0.101888,0.000032,0.405353,settle,D1
0.47600,-0.95227,0.00006,-3.07805,2.23129,-0.00209,-11.09751,-0.000110,-0.095696,-3.140520,0.000211,-0.258033,0.000071,68.97503,0.11363,409.40125,0.000083,0.097029,0.000031,0.401483,settle,D1
0.48660,-1.12402,0.00006,-3.64489,2.39837,-0.00223,-10.98349,-0.000099,-0.081784,-3.140518,0.000211,-0.260492,0.000069,25.55304,0.04553,155.90437,0.000073,0.085213,0.000028,0.350170,settle,D1
0.49692,-1.12402,0.00006,-3.64489,2.39837,-0.00223,-10.98349,-0.000099,-0.081784,-3.140518,0.000211,-0.260492,0.000069,-0.32102,-0.00008,-7.17623,0.000073,0.085213,0.000028,0.350170,settle,D1
0.50733,-1.14688,0.00006,-3.71941,2.42156,-0.00225,-10.95941,-0.000098,-0.079993,-3.140518,0.000213,-0.257925,0.000068,-0.32102,-0.00008,-7.17623,0.000072,0.083527,0.000027,0.343884,settle,D1
0.51821,-1.14688,0.00006,-3.71941,2.42156,-0.00225,-10.95941,-0.000098,-0.079993,-3.140518,0.000213,-0.257925,0.000068,-0.32102,-0.00008,-7.17623,0.000072,0.083527,0.000027,0.343884,settle,D1
0.52871,-1.17168,0.00006,-3.80016,2.45908,-0.00228,-10.76950,-0.000096,-0.078075,-3.140517,0.000183,-0.209557,0.000061,36.88724,0.07664,466.35217,0.000072,0.079107,0.000027,0.345264,settle,D1
0.53957,-1.17168,0.00006,-3.80016,2.45908,-0.00228,-10.76950,-0.000096,-0.078075,-3.140517,0.000183,-0.209557,0.000061,36.03151,0.07751,553.38733,0.000072,0.079107,0.000027,0.345264,settle,D1
0.55065,-1.17168,0.00006,-3.80016,2.45908,-0.00228,-10.76950,-0.000096,-0.078075,-3.140517,0.000183,-0.209557,0.000061,19.11559,0.04679,337.66055,0.000072,0.079107,0.000027,0.345264,settle,D1
0.56136,-1.34434,0.00006,-4.35285,2.58799,-0.00239,-10.59220,-0.000087,-0.066837,-3.140515,0.000181,-0.201826,0.000058,-0.34104,-0.00003,-4.46127,0.000064,0.069006,0.000024,0.298644,settle,D1
0.57169,-1.36719,0.00006,-4.42477,2.60494,-0.00241,-10.55034,-0.000085,-0.065440,-3.140515,0.000182,-0.201256,0.000057,-0.34104,-0.00003,-4.46127,0.000063,0.067772,0.000024,0.293520,settle,D1
0.58245,-1.36719,0.00006,-4.42477,2.60494,-0.00241,-10.55034,-0.000085,-0.065440,-3.140515,0.000182,-0.201256,0.000057,-0.34104,-0.00003,-4.46127,0.000063,0.067772,0.000024,0.293520,settle,D1
0.59321,-1.36719,0.00006,-4.42477,2.60494,-0.00241,-10.55034,-0.000085,-0.065440,-3.140515,0.000182,-0.201256,0.000057,-0.34104,-0.00003,-4.46127,0.000063,0.067772,0.000024,0.293520,settle,D1
0.60379,-1.39109,0.00006,-4.49976,2.63033,-0.00242,-10.28565,-0.000084,-0.063978,-3.140515,0.000159,-0.171224,0.000053,30.66755,0.09566,987.93408,0.000063,0.064795,0.000024,0.299230,settle,D1
0.61430,-1.50953,0.00006,-4.86592,2.69955,-0.00249,-10.14398,-0.000078,-0.057543,-3.140513,0.000155,-0.165399,0.000051,11.31252,0.04470,461.77808,0.000058,0.058931,0.000021,0.269593,settle,D1
0.62495,-1.56301,0.00006,-5.02813,2.72818,-0.00251,-10.07658,-0.000076,-0.054857,-3.140513,0.000156,-0.163799,0.000051,-0.33511,0.00014,-1.06813,0.000056,0.056531,0.000020,0.256703,settle,D1
0.63547,-1.58574,0.00006,-5.09663,2.74069,-0.00252,-10.02540,-0.000075,-0.053723,-3.140512,0.000156,-0.163299,0.000050,-0.38041,-0.00005,-3.30576,0.000055,0.055528,0.000020,0.252396,settle,D1
0.64599,-1.58574,0.00006,-5.09663,2.74069,-0.00252,-10.02540,-0.000075,-0.053723,-3.140512,0.000156,-0.163299,0.000050,-0.38041,-0.00005,-3.30576,0.000055,0.055528,0.000020,0.252396,settle,D1
0.65652,-1.58574,0.00006,-5.09663,2.74069,-0.00252,-10.02540,-0.000075,-0.053723,-3.140512,0.000156,-0.163299,0.000050,-0.38041,-0.00005,-3.30576,0.000055,0.055528,0.000020,0.252396,settle,D1
0.66708,-1.60984,0.00006,-5.16888,2.75723,-0.00253,-9.69717,-0.000073,-0.052552,-3.140512,0.000137,-0.138823,0.000044,12.32606,0.07302,969.99249,0.000055,0.053119,0.000020,0.261565,settle,D1
0.67768,-1.72844,0.00006,-5.51790,2.80879,-0.00258,-9.54485,-0.000068,-0.047342,-3.140511,0.000135,-0.135360,0.000043,3.06776,0.03362,436.03085,0.000051,0.048443,0.000018,0.234211,settle,D1
0.68798,-1.72844,0.00006,-5.51790,2.80879,-0.00258,-9.54485,-0.000068,-0.047342,-3.140511,0.000135,-0.135360,0.000043,-0.38855,0.00012,-0.29164,0.000051,0.048443,0.000018,0.234211,settle,D1
0.69862,-1.80383,0.00006,-5.73425,2.83888,-0.00261,-9.41130,-0.000065,-0.044245,-3.140510,0.000134,-0.131107,0.000042,-0.40305,-0.00005,-1.81352,0.000048,0.045537,0.000017,0.219214,settle,D1
0.70933,-1.80383,0.00006,-5.73425,2.83888,-0.00261,-9.41130,-0.000065,-0.044245,-3.140510,0.000134,-0.131107,0.000042,-0.40305,-0.00005,-1.81352,0.000048,0.045537,0.000017,0.219214,settle,D1
0.71993,-1.80383,0.00006,-5.73425,2.83888,-0.00261,-9.41130,-0.000065,-0.044245,-3.140510,0.000134,-0.131107,0.000042,-0.40305,-0.00005,-1.81352,0.000048,0.045537,0.000017,0.219214,settle,D1
0.73069,-1.80383,0.00006,-5.73425,2.83888,-0.00261,-9.41130,-0.000065,-0.044245,-3.140510,0.000134,-0.131107,0.000042,-0.40305,-0.00005,-1.81352,0.000048,0.045537,0.000017,0.219214,settle,D1
0.74130,-1.82793,0.00006,-5.80260,2.84835,-0.00261,-9.06402,-0.000064,-0.043299,-3.140510,0.000119,-0.113691,0.000037,0.86338,0.07245,1131.40869,0.000048,0.043727,0.000017,0.229732,settle,D1
0.75187,-1.94418,0.00006,-6.12545,2.88577,-0.00265,-8.90591,-0.000060,-0.039111,-3.140509,0.000118,-0.112264,0.000035,-2.27501,0.03180,507.52158,0.000045,0.040046,0.000015,0.205307,settle,D1
0.76235,-2.02027,0.00006,-6.33092,2.90839,-0.00267,-8.76620,-0.000057,-0.036464,-3.140508,0.000118,-0.112213,0.000035,-0.41849,-0.00002,-1.85148,0.000042,0.037768,0.000014,0.191719,settle,D1
0.77296,-2.02027,0.00006,-6.33092,2.90839,-0.00267,-8.76620,-0.000057,-0.036464,-3.140508,0.000118,-0.112213,0.000035,-0.41849,-0.00002,-1.85148,0.000042,0.037768,0.000014,0.191719,settle,D1
0.78327,-2.02027,0.00006,-6.33092,2.90839,-0.00267,-8.76620,-0.000057,-0.036464,-3.140508,0.000118,-0.112213,0.000035,-0.41849,-0.00002,-1.85148,0.000042,0.037768,0.000014,0.191719,settle,D1
0.79364,-2.02027,0.00006,-6.33092,2.90839,-0.00267,-8.76620,-0.000057,-0.036464,-3.140508,0.000118,-0.112213,0.000035,-0.41849,-0.00002,-1.85148,0.000042,0.037768,0.000014,0.191719,settle,D1
0.80432,-2.04340,0.00006,-6.39252,2.91250,-0.00267,-8.42623,-0.000056,-0.035677,-3.140508,0.000105,-0.095688,0.000032,-8.72692,0.05615,993.91003,0.000042,0.036145,0.000014,0.202550,settle,D1
0.81495,-2.15910,0.00006,-6.69446,2.94074,-0.00270,-8.27391,-0.000053,-0.032110,-3.140507,0.000103,-0.092262,0.000030,-0.46077,0.00010,0.26663,0.000039,0.032882,0.000012,0.179941,settle,D1
0.82589,-2.15910,0.00006,-6.69446,2.94074,-0.00270,-8.27391,-0.000053,-0.032110,-3.140507,0.000103,-0.092262,0.000030,-0.46077,0.00010,0.26663,0.000039,0.032882,0.000012,0.179941,settle,D1
0.83676,-2.23363,0.00006,-6.88328,2.95622,-0.00271,-8.14347,-0.000050,-0.029982,-3.140506,0.000103,-0.090804,0.000030,-0.42505,-0.00004,-2.38397,0.000037,0.030970,0.000012,0.167563,settle,D1
0.84750,-2.23363,0.00006,-6.88328,2.95622,-0.00271,-8.14347,-0.000050,-0.029982,-3.140506,0.000103,-0.090804,0.000030,-0.42505,-0.00004,-2.38397,0.000037,0.030970,0.000012,0.167563,settle,D1
0.85788,-2.23363,0.00006,-6.88328,2.95622,-0.00271,-8.14347,-0.000050,-0.029982,-3.140506,0.000103,-0.090804,0.000030,-0.42505,-0.00004,-2.38397,0.000037,0.030970,0.000012,0.167563,settle,D1
0.86829,-2.23363,0.00006,-6.88328,2.95622,-0.00271,-8.14347,-0.000050,-0.029982,-3.140506,0.000103,-0.090804,0.000030,-23.02981,0.07021,1441.98938,0.000037,0.030970,0.000012,0.167563,settle,D1
0.87879,-2.25738,0.00006,-6.94267,2.95607,-0.00270,-7.79972,-0.000049,-0.029321,-3.140506,0.000093,-0.078985,0.000027,-23.02981,0.07021,1441.98938,0.000037,0.029725,0.000012,0.178806,settle,D1
0.88940,-2.42457,0.00006,-7.34705,2.98414,-0.00273,-7.55989,-0.000045,-0.025120,-3.140505,0.000090,-0.076819,0.000025,-0.43545,-0.00002,-1.42154,0.000033,0.025990,0.000010,0.150330,settle,D1
0.90013,-2.44660,0.00006,-7.39859,2.98674,-0.00273,-7.49710,-0.000044,-0.024589,-3.140505,0.000090,-0.076466,0.000025,-0.43545,-0.00002,-1.42154,0.000032,0.025514,0.000010,0.148311,settle,D1
0.91039,-2.44660,0.00006,-7.39859,2.98674,-0.00273,-7.49710,-0.000044,-0.024589,-3.140505,0.000090,-0.076466,0.000025,-0.43545,-0.00002,-1.42154,0.000032,0.025514,0.000010,0.148311,settle,D1
0.92102,-2.44660,0.00006,-7.39859,2.98674,-0.00273,-7.49710,-0.000044,-0.024589,-3.140505,0.000090,-0.076466,0.000025,-0.43545,-0.00002,-1.42154,0.000032,0.025514,0.000010,0.148311,settle,D1
0.93210,-2.44660,0.00006,-7.39859,2.98674,-0.00273,-7.49710,-0.000044,-0.024589,-3.140505,0.000090,-0.076466,0.000025,-17.44385,0.03341,773.50439,0.000032,0.025514,0.000010,0.148311,settle,D1
0.94249,-2.46961,0.00006,-7.45204,2.98320,-0.00271,-7.16096,-0.000043,-0.024036,-3.140505,0.000083,-0.066991,0.000023,-13.49297,0.02126,522.57635,0.000032,0.024496,0.000010,0.159770,settle,D1
0.95300,-2.63543,0.00006,-7.82406,3.00279,-0.00274,-6.92441,-0.000039,-0.020476,-3.140503,0.000079,-0.063838,0.000022,-0.50057,0.00007,1.49549,0.000029,0.021255,0.000008,0.134374,settle,D1
0.96354,-2.63543,0.00006,-7.82406,3.00279,-0.00274,-6.92441,-0.000039,-0.020476,-3.140503,0.000079,-0.063838,0.000022,-0.44032,-0.00002,-1.33477,0.000029,0.021255,0.000008,0.134374,settle,D1
0.97398,-2.65723,0.00006,-7.87128,3.00407,-0.00274,-6.86171,-0.000038,-0.020035,-3.140503,0.000079,-0.063372,0.000022,-0.44032,-0.00002,-1.33477,0.000028,0.020850,0.000008,0.132785,settle,D1
0.98469,-2.65723,0.00006,-7.87128,3.00407,-0.00274,-6.86171,-0.000038,-0.020035,-3.140503,0.000079,-0.063372,0.000022,-0.44032,-0.00002,-1.33477,0.000028,0.020850,0.000008,0.132785,settle,D1
0.99512,-2.65723,0.00006,-7.87128,3.00407,-0.00274,-6.86171,-0.000038,-0.020035,-3.140503,0.000079,-0.063372,0.000022,-0.44032,-0.00002,-1.33477,0.000028,0.020850,0.000008,0.132785,settle,D1
1.00567,-2.67977,0.00006,-7.91969,2.99782,-0.00272,-6.53017,-0.000038,-0.019583,-3.140503,0.000073,-0.055599,0.000018,-24.27890,0.03342,875.63989,0.000028,0.020016,0.000008,0.144518,settle,D1
1.01600,-2.79238,0.00006,-8.15511,3.00700,-0.00273,-6.38119,-0.000035,-0.017512,-3.140503,0.000070,-0.053037,0.000017,-14.85288,0.01742,459.79633,0.000026,0.018089,0.000008,0.128415,settle,D1
1.02643,-2.86516,0.00006,-8.30150,3.01037,-0.00273,-6.24968,-0.000034,-0.016289,-3.140502,0.000070,-0.051722,0.000016,-0.43203,-0.00002,-2.11683,0.000025,0.016963,0.000006,0.120347,settle,D1
1.03708,-2.86516,0.00006,-8.30150,3.01037,-0.00273,-6.24968,-0.000034,-0.016289,-3.140502,0.000070,-0.051722,0.000016,-0.43203,-0.00002,-2.11683,0.000025,0.016963,0.000006,0.120347,settle,D1
1.04801,-2.86516,0.00006,-8.30150,3.01037,-0.00273,-6.24968,-0.000034,-0.016289,-3.140502,0.000070,-0.051722,0.000016,-0.43203,-0.00002,-2.11683,0.000025,0.016963,0.000006,0.120347,settle,D1
1.05839,-2.86516,0.00006,-8.30150,3.01037,-0.00273,-6.24968,-0.000034,-0.016289,-3.140502,0.000070,-0.051722,0.000016,-25.70198,0.02708,808.62146,0.000025,0.016963,0.000006,0.120347,settle,D1
1.06912,-2.88816,0.00006,-8.34695,3.00197,-0.00271,-5.91544,-0.000033,-0.015914,-3.140502,0.000063,-0.045244,0.000014,-25.70198,0.02708,808.62146,0.000025,0.016269,0.000007,0.132512,settle,D1
1.07977,-2.88816,0.00006,-8.34695,3.00197,-0.00271,-5.91544,-0.000033,-0.015914,-3.140502,0.000063,-0.045244,0.000014,-18.13023,0.01673,501.82990,0.000025,0.016269,0.000007,0.132512,settle,D1
1.09045,-2.99945,0.00006,-8.56005,3.00704,-0.00271,-5.76932,-0.000031,-0.014243,-3.140502,0.000062,-0.043674,0.000014,-0.51697,0.00006,0.38907,0.000023,0.014743,0.000006,0.118501,settle,D1
1.10086,-3.07137,0.00006,-8.69207,3.00797,-0.00271,-5.63990,-0.000029,-0.013235,-3.140502,0.000062,-0.042818,0.000014,-0.42457,-0.00003,-2.30899,0.000022,0.013828,0.000005,0.111767,settle,D1
1.11135,-3.07137,0.00006,-8.69207,3.00797,-0.00271,-5.63990,-0.000029,-0.013235,-3.140502,0.000062,-0.042818,0.000014,-0.42457,-0.00003,-2.30899,0.000022,0.013828,0.000005,0.111767,settle,D1
1.12161,-3.07137,0.00006,-8.69207,3.00797,-0.00271,-5.63990,-0.000029,-0.013235,-3.140502,0.000062,-0.042818,0.000014,-0.42457,-0.00003,-2.30899,0.000022,0.013828,0.000005,0.111767,settle,D1
1.13221,-3.07137,0.00006,-8.69207,3.00797,-0.00271,-5.63990,-0.000029,-0.013235,-3.140502,0.000062,-0.042818,0.000014,-32.91013,0.02768,914.66150,0.000022,0.013828,0.000005,0.111767,settle,D1
1.14284,-3.09453,0.00006,-8.73374,2.99795,-0.00269,-5.32197,-0.000029,-0.012915,-3.140501,0.000056,-0.038127,0.000013,-32.91013,0.02768,914.66150,0.000021,0.013284,0.000005,0.123495,settle,D1
1.15361,-3.20512,0.00006,-8.92637,3.00027,-0.00269,-5.17614,-0.000027,-0.011499,-3.140501,0.000055,-0.036671,0.000012,-18.99159,0.01413,501.91031,0.000020,0.011984,0.000005,0.111518,settle,D1
1.16432,-3.27660,0.00006,-9.04504,2.99943,-0.00268,-5.03934,-0.000025,-0.010649,-3.140500,0.000054,-0.035983,0.000011,-0.51951,0.00005,1.10433,0.000019,0.011214,0.000004,0.106489,settle,D1
1.17469,-3.27660,0.00006,-9.04504,2.99943,-0.00268,-5.03934,-0.000025,-0.010649,-3.140500,0.000054,-0.035983,0.000011,-0.43351,-0.00001,-1.63541,0.000019,0.011214,0.000004,0.106489,settle,D1
1.18503,-3.27660,0.00006,-9.04504,2.99943,-0.00268,-5.03934,-0.000025,-0.010649,-3.140500,0.000054,-0.035983,0.000011,-0.43351,-0.00001,-1.63541,0.000019,0.011214,0.000004,0.106489,settle,D1
1.19535,-3.27660,0.00006,-9.04504,2.99943,-0.00268,-5.03934,-0.000025,-0.010649,-3.140500,0.000054,-0.035983,0.000011,-31.62386,0.02160,792.33746,0.000019,0.011214,0.000004,0.106489,settle,D1
1.20596,-3.29883,0.00006,-9.08109,2.98821,-0.00266,-4.72804,-0.000025,-0.010390,-3.140500,0.000049,-0.031579,0.000009,-31.62386,0.02160,792.33746,0.000019,0.010738,0.000004,0.118449,settle,D1
1.21636,-3.29883,0.00006,-9.08109,2.98821,-0.00266,-4.72804,-0.000025,-0.010390,-3.140500,0.000049,-0.031579,0.000009,-19.92692,0.01221,477.90869,0.000019,0.010738,0.000004,0.118449,settle,D1
1.22700,-3.45785,0.00006,-9.32651,2.98757,-0.00265,-4.52042,-0.000022,-0.008723,-3.140500,0.000048,-0.029718,0.000008,-0.51781,0.00004,0.03089,0.000017,0.009200,0.000004,0.104283,settle,D1
1.23747,-3.47887,0.00006,-9.35734,2.98597,-0.00265,-4.46502,-0.000022,-0.008519,-3.140500,0.000047,-0.029401,0.000008,-0.42240,-0.00002,-2.43031,0.000016,0.009006,0.000004,0.103970,settle,D1
1.24796,-3.47887,0.00006,-9.35734,2.98597,-0.00265,-4.46502,-0.000022,-0.008519,-3.140500,0.000047,-0.029401,0.000008,-0.42240,-0.00002,-2.43031,0.000016,0.009006,0.000004,0.103970,settle,D1
1.25847,-3.47887,0.00006,-9.35734,2.98597,-0.00265,-4.46502,-0.000022,-0.008519,-3.140500,0.000047,-0.029401,0.000008,-0.42240,-0.00002,-2.43031,0.000016,0.009006,0.000004,0.103970,settle,D1
1.26902,-3.50121,0.00006,-9.38977,2.97381,-0.00262,-4.17199,-0.000022,-0.008304,-3.140500,0.000043,-0.025837,0.000009,-58.91483,0.03352,1348.26611,0.000016,0.008617,0.000004,0.115378,settle,D1
1.27971,-3.50121,0.00006,-9.38977,2.97381,-0.00262,-4.17199,-0.000022,-0.008304,-3.140500,0.000043,-0.025837,0.000009,-58.91483,0.03352,1348.26611,0.000016,0.008617,0.000004,0.115378,settle,D1
1.29010,-3.65891,0.00006,-9.60673,2.97062,-0.00261,-3.97913,-0.000019,-0.006943,-3.140500,0.000042,-0.024134,0.000009,-0.52564,0.00004,-0.47617,0.000014,0.007350,0.000003,0.103322,settle,D1
1.30065,-3.65891,0.00006,-9.60673,2.97062,-0.00261,-3.97913,-0.000019,-0.006943,-3.140500,0.000042,-0.024134,0.000009,-0.40316,-0.00002,-3.03965,0.000014,0.007350,0.000003,0.103322,settle,D1
1.31127,-3.67969,0.00006,-9.63386,2.96869,-0.00261,-3.92637,-0.000019,-0.006777,-3.140500,0.000042,-0.023876,0.000009,-0.40316,-0.00002,-3.03965,0.000014,0.007192,0.000003,0.103247,settle,D1
1.32175,-3.67969,0.00006,-9.63386,2.96869,-0.00261,-3.92637,-0.000019,-0.006777,-3.140500,0.000042,-0.023876,0.000009,-0.40316,-0.00002,-3.03965,0.000014,0.007192,0.000003,0.103247,settle,D1
1.33239,-3.70246,0.00006,-9.66317,2.95585,-0.00258,-3.64393,-0.000019,-0.006596,-3.140500,0.000038,-0.021065,0.000007,-41.73354,0.01982,889.74048,0.000014,0.006876,0.000003,0.114438,settle,D1
1.34311,-3.80875,0.00006,-9.79435,2.95283,-0.00257,-3.52038,-0.000018,-0.005822,-3.140499,0.000037,-0.020051,0.000006,-41.73354,0.01982,889.74048,0.000013,0.006152,0.000002,0.107496,settle,D1
1.35360,-3.80875,0.00006,-9.79435,2.95283,-0.00257,-3.52038,-0.000018,-0.005822,-3.140499,0.000037,-0.020051,0.000006,-19.80612,0.00853,389.52884,0.000013,0.006152,0.000002,0.107496,settle,D1
1.36411,-3.87840,0.00004,-9.87521,2.94864,-0.00256,-3.40549,-0.000017,-0.005360,-3.140499,0.000036,-0.019168,0.000005,-0.51347,0.00003,-0.82341,0.000012,0.005705,0.000002,0.105154,settle,D1
1.37454,-3.87840,0.00004,-9.87521,2.94864,-0.00256,-3.40549,-0.000017,-0.005360,-3.140499,0.000036,-0.019168,0.000005,-0.41302,-0.00001,-2.76420,0.000012,0.005705,0.000002,0.105154,settle,D1
1.38492,-3.87840,0.00004,-9.87521,2.94864,-0.00256,-3.40549,-0.000017,-0.005360,-3.140499,0.000036,-0.019168,0.000005,-0.41302,-0.00001,-2.76420,0.000012,0.005705,0.000002,0.105154,settle,D1
1.39557,-3.87840,0.00004,-9.87521,2.94864,-0.00256,-3.40549,-0.000017,-0.005360,-3.140499,0.000036,-0.019168,0.000005,-0.41302,-0.00001,-2.76420,0.000012,0.005705,0.000002,0.105154,settle,D1
1.40640,-3.90035,0.00004,-9.89992,2.93527,-0.00253,-3.12791,-0.000016,-0.005222,-3.140499,0.000033,-0.016645,0.000004,-35.51055,0.01425,710.14716,0.000012,0.005442,0.000002,0.116562,settle,D1
1.41667,-4.00664,0.00004,-10.01393,2.93128,-0.00253,-3.00723,-0.000015,-0.004607,-3.140499,0.000032,-0.016197,0.000004,-18.92015,0.00694,369.18210,0.000011,0.004887,0.000002,0.111194,settle,D1
1.42725,-4.00664,0.00004,-10.01393,2.93128,-0.00253,-3.00723,-0.000015,-0.004607,-3.140499,0.000032,-0.016197,0.000004,-0.40800,-0.00001,-2.82657,0.000011,0.004887,0.000002,0.111194,settle,D1
1.43797,-4.07508,0.00002,-10.08229,2.92655,-0.00252,-2.89194,-0.000014,-0.004232,-3.140499,0.000032,-0.015977,0.000004,-0.40800,-0.00001,-2.82657,0.000011,0.004553,0.000002,0.110121,settle,D1
1.44816,-4.07508,0.00002,-10.08229,2.92655,-0.00252,-2.89194,-0.000014,-0.004232,-3.140499,0.000032,-0.015977,0.000004,-0.40800,-0.00001,-2.82657,0.000011,0.004553,0.000002,0.110121,settle,D1
1.45875,-4.07508,0.00002,-10.08229,2.92655,-0.00252,-2.89194,-0.000014,-0.004232,-3.140499,0.000032,-0.015977,0.000004,-0.40800,-0.00001,-2.82657,0.000011,0.004553,0.000002,0.110121,settle,D1
1.46924,-4.09684,0.00001,-10.10325,2.91292,-0.00249,-2.62718,-0.000014,-0.004116,-3.140499,0.000029,-0.013735,0.000004,-31.23809,0.01066,579.59656,0.000011,0.004325,0.000002,0.121264,settle,D1
1.47947,-4.09684,0.00001,-10.10325,2.91292,-0.00249,-2.62718,-0.000014,-0.004116,-3.140499,0.000029,-0.013735,0.000004,-31.23809,0.01066,579.59656,0.000011,0.004325,0.000002,0.121264,settle,D1
1.49010,-4.25004,-0.00001,-10.23982,2.90559,-0.00247,-2.45526,-0.000013,-0.003392,-3.140499,0.000028,-0.012842,0.000004,-0.50563,0.00002,-1.20915,0.000009,0.003651,0.000002,0.116202,settle,D1
1.50072,-4.27027,-0.00001,-10.25646,2.90310,-0.00247,-2.40613,-0.000013,-0.003304,-3.140499,0.000028,-0.012698,0.000004,-0.40190,-0.00001,-3.13225,0.000009,0.003568,0.000002,0.116994,settle,D1
1.51150,-4.27027,-0.00001,-10.25646,2.90310,-0.00247,-2.40613,-0.000013,-0.003304,-3.140499,0.000028,-0.012698,0.000004,-0.40190,-0.00001,-3.13225,0.000009,0.003568,0.000002,0.116994,settle,D1
1.52195,-4.27027,-0.00001,-10.25646,2.90310,-0.00247,-2.40613,-0.000013,-0.003304,-3.140499,0.000028,-0.012698,0.000004,-0.40190,-0.00001,-3.13225,0.000009,0.003568,0.000002,0.116994,settle,D1
1.53259,-4.29176,-0.00002,-10.27378,2.90045,-0.00246,-2.35422,-0.000012,-0.003211,-3.140499,0.000028,-0.012592,0.000004,-37.82707,0.01107,667.52545,0.000009,0.003481,0.000002,0.117858,settle,D1
1.54338,-4.29176,-0.00002,-10.27378,2.88930,-0.00244,-2.15424,-0.000012,-0.003211,-3.140499,0.000025,-0.011101,0.000004,-21.85976,0.00590,377.91171,0.000009,0.003396,0.000002,0.127856,settle,D1
1.55410,-4.44383,-0.00009,-10.38596,2.88126,-0.00242,-1.98793,-0.000011,-0.002625,-3.140498,0.000024,-0.010372,0.000004,-0.50078,0.00002,-1.40792,0.000008,0.002850,0.000001,0.124954,settle,D1
1.56450,-4.44383,-0.00009,-10.38596,2.88126,-0.00242,-1.98793,-0.000011,-0.002625,-3.140498,0.000024,-0.010372,0.000004,-0.38771,-0.00001,-3.47682,0.000008,0.002850,0.000001,0.124954,settle,D1
1.57510,-4.46387,-0.00010,-10.39939,2.87870,-0.00241,-1.94045,-0.000011,-0.002554,-3.140498,0.000024,-0.010246,0.000004,-0.38771,-0.00001,-3.47682,0.000008,0.002782,0.000001,0.125985,settle,D1
1.58558,-4.46387,-0.00010,-10.39939,2.87870,-0.00241,-1.94045,-0.000011,-0.002554,-3.140498,0.000024,-0.010246,0.000004,-0.38771,-0.00001,-3.47682,0.000008,0.002782,0.000001,0.125985,settle,D1
1.59631,-4.48516,-0.00011,-10.41330,2.86483,-0.00238,-1.69936,-0.000011,-0.002479,-3.140498,0.000022,-0.008857,0.000003,-0.38771,-0.00001,-3.47682,0.000008,0.002638,0.000001,0.136649,settle,D1
1.60698,-4.48516,-0.00011,-10.41330,2.86483,-0.00238,-1.69936,-0.000011,-0.002479,-3.140498,0.000022,-0.008857,0.000003,-45.06218,0.01130,759.26807,0.000008,0.002638,0.000001,0.136649,settle,D1
1.61798,-4.58812,-0.00016,-10.47566,2.85939,-0.00237,-1.59777,-0.000010,-0.002150,-3.140498,0.000021,-0.008371,0.000003,-0.49992,0.00002,-1.90457,0.000007,0.002327,0.000001,0.135491,settle,D1
1.62872,-4.65508,-0.00019,-10.51181,2.85380,-0.00236,-1.50042,-0.000009,-0.001957,-3.140498,0.000021,-0.008071,0.000002,-0.38435,-0.00001,-3.84560,0.000007,0.002145,0.000001,0.136744,settle,D1
1.63907,-4.65508,-0.00019,-10.51181,2.85380,-0.00236,-1.50042,-0.000009,-0.001957,-3.140498,0.000021,-0.008071,0.000002,-0.38435,-0.00001,-3.84560,0.000007,0.002145,0.000001,0.136744,settle,D1
1.64933,-4.65508,-0.00019,-10.51181,2.85380,-0.00236,-1.50042,-0.000009,-0.001957,-3.140498,0.000021,-0.008071,0.000002,-0.38435,-0.00001,-3.84560,0.000007,0.002145,0.000001,0.136744,settle,D1
1.65990,-4.65508,-0.00019,-10.51181,2.85380,-0.00236,-1.50042,-0.000009,-0.001957,-3.140498,0.000021,-0.008071,0.000002,-30.01713,0.00642,469.42386,0.000007,0.002145,0.000001,0.136744,settle,D1
1.67048,-4.67617,-0.00020,-10.52251,2.83991,-0.00233,-1.27540,-0.000009,-0.001899,-3.140498,0.000019,-0.006879,0.000002,-30.01713,0.00642,469.42386,0.000007,0.002026,0.000001,0.146925,settle,D1
1.68099,-4.67617,-0.00020,-10.52251,2.83991,-0.00233,-1.27540,-0.000009,-0.001899,-3.140498,0.000019,-0.006879,0.000002,-22.21114,0.00443,336.37512,0.000007,0.002026,0.000001,0.146925,settle,D1
1.69194,-4.77816,-0.00024,-10.56964,2.83427,-0.00232,-1.18083,-0.000008,-0.001644,-3.140498,0.000018,-0.006566,0.000002,-0.48248,0.00001,-2.61250,0.000006,0.001789,0.000001,0.146940,settle,D1
1.70256,-4.84461,-0.00027,-10.59620,2.82857,-0.00231,-1.09029,-0.000008,-0.001492,-3.140498,0.000018,-0.006363,0.000002,-0.37762,-0.00001,-4.26512,0.000006,0.001647,0.000001,0.148812,settle,D1
1.71284,-4.84461,-0.00027,-10.59620,2.82857,-0.00231,-1.09029,-0.000008,-0.001492,-3.140498,0.000018,-0.006363,0.000002,-0.37762,-0.00001,-4.26512,0.000006,0.001647,0.000001,0.148812,settle,D1
1.72380,-4.84461,-0.00027,-10.59620,2.82857,-0.00231,-1.09029,-0.000008,-0.001492,-3.140498,0.000018,-0.006363,0.000002,-0.37762,-0.00001,-4.26512,0.000006,0.001647,0.000001,0.148812,settle,D1
1.73450,-4.84461,-0.00027,-10.59620,2.82857,-0.00231,-1.09029,-0.000008,-0.001492,-3.140498,0.000018,-0.006363,0.000002,-58.33128,0.01079,854.18665,0.000006,0.001647,0.000001,0.148812,settle,D1
1.74502,-4.86551,-0.00028,-10.60390,2.81476,-0.00227,-0.88260,-0.000008,-0.001446,-3.140498,0.000017,-0.005491,0.000002,-58.33128,0.01079,854.18665,0.000006,0.001557,0.000001,0.158425,settle,D1
1.75563,-5.01312,-0.00035,-10.64958,2.80589,-0.00226,-0.74797,-0.000007,-0.001155,-3.140498,0.000016,-0.005151,0.000002,-0.47304,0.00001,-3.05846,0.000005,0.001288,0.000001,0.160589,settle,D1
1.76617,-5.03262,-0.00036,-10.65449,2.80326,-0.00225,-0.70962,-0.000007,-0.001120,-3.140498,0.000016,-0.005085,0.000002,-0.37917,-0.00000,-4.51210,0.000005,0.001254,0.000001,0.162016,settle,D1
1.77692,-5.03262,-0.00036,-10.65449,2.80326,-0.00225,-0.70962,-0.000007,-0.001120,-3.140498,0.000016,-0.005085,0.000002,-0.37917,-0.00000,-4.51210,0.000005,0.001254,0.000001,0.162016,settle,D1
1.78760,-5.03262,-0.00036,-10.65449,2.80326,-0.00225,-0.70962,-0.000007,-0.001120,-3.140498,0.000016,-0.005085,0.000002,-0.37917,-0.00000,-4.51210,0.000005,0.001254,0.000001,0.162016,settle,D1
1.79830,-5.03262,-0.00036,-10.65449,2.80326,-0.00225,-0.70962,-0.000007,-0.001120,-3.140498,0.000016,-0.005085,0.000002,-40.41172,0.00637,541.68085,0.000005,0.001254,0.000001,0.162016,settle,D1
1.80865,-5.05312,-0.00037,-10.65937,2.78953,-0.00222,-0.51824,-0.000007,-0.001083,-3.140498,0.000014,-0.004284,0.000002,-40.41172,0.00637,541.68085,0.000005,0.001177,0.000001,0.171097,settle,D1
1.81911,-5.19910,-0.00044,-10.68604,2.78069,-0.00220,-0.39708,-0.000006,-0.000856,-3.140498,0.000014,-0.004002,0.000002,-24.02751,0.00354,313.46094,0.000004,0.000965,0.000001,0.174487,settle,D1
1.82976,-5.19910,-0.00044,-10.68604,2.78069,-0.00220,-0.39708,-0.000006,-0.000856,-3.140498,0.000014,-0.004002,0.000002,-0.36547,-0.00001,-5.11385,0.000004,0.000965,0.000001,0.174487,settle,D1
1.84007,-5.21840,-0.00045,-10.68854,2.77807,-0.00220,-0.36243,-0.000006,-0.000829,-3.140498,0.000014,-0.003947,0.000002,-0.36547,-0.00001,-5.11385,0.000004,0.000939,0.000001,0.175970,settle,D1
1.85042,-5.21840,-0.00045,-10.68854,2.77807,-0.00220,-0.36243,-0.000006,-0.000829,-3.140498,0.000014,-0.003947,0.000002,-0.36547,-0.00001,-5.11385,0.000004,0.000939,0.000001,0.175970,settle,D1
1.86087,-5.23910,-0.00046,-10.69095,2.76442,-0.00217,-0.19126,-0.000006,-0.000801,-3.140498,0.000012,-0.003228,0.000001,-0.08603,-0.00004,-8.80275,0.000004,0.000873,0.000001,0.184287,settle,D1
1.87174,-5.23910,-0.00046,-10.69095,2.76442,-0.00217,-0.19126,-0.000006,-0.000801,-3.140498,0.000012,-0.003228,0.000001,-53.21293,0.00720,640.98486,0.000004,0.000873,0.000001,0.184287,settle,D1
1.88225,-5.23910,-0.00046,-10.69095,2.76442,-0.00217,-0.19126,-0.000006,-0.000801,-3.140498,0.000012,-0.003228,0.000001,-23.27605,0.00294,264.84705,0.000004,0.000873,0.000001,0.184287,settle,D1
1.89330,-5.38379,-0.00053,-10.70063,2.75560,-0.00215,-0.08614,-0.000005,-0.000630,-3.140498,0.000012,-0.003003,0.000001,-0.35679,-0.00001,-5.79562,0.000004,0.000714,0.000001,0.188575,settle,D1
1.90361,-5.40289,-0.00054,-10.70101,2.75300,-0.00214,-0.05636,-0.000005,-0.000609,-3.140498,0.000012,-0.002964,0.000001,-0.35679,-0.00001,-5.79562,0.000004,0.000693,0.000001,0.190026,settle,D1
1.91414,-5.40289,-0.00054,-10.70101,2.75300,-0.00214,-0.05636,-0.000005,-0.000609,-3.140498,0.000012,-0.002964,0.000001,-0.35679,-0.00001,-5.79562,0.000004,0.000693,0.000001,0.190026,settle,D1
1.92464,-5.40289,-0.00054,-10.70101,2.75300,-0.00214,-0.05636,-0.000005,-0.000609,-3.140498,0.000012,-0.002964,0.000001,-0.35679,-0.00001,-5.79562,0.000004,0.000693,0.000001,0.190026,settle,D1
1.93504,-5.42328,-0.00055,-10.70119,2.73957,-0.00211,0.09077,-0.000005,-0.000587,-3.140497,0.000011,-0.002507,0.000002,-20.86884,0.00237,212.43312,0.000004,0.000649,-0.000000,0.197365,settle,D1
1.94546,-5.52156,-0.00060,-10.69890,2.73383,-0.00210,0.15059,-0.000005,-0.000494,-3.140497,0.000010,-0.002350,0.000001,-20.86884,0.00237,212.43312,0.000003,0.000559,-0.000000,0.200585,settle,D1
1.95596,-5.52156,-0.00060,-10.69890,2.73383,-0.00210,0.15059,-0.000005,-0.000494,-3.140497,0.000010,-0.002350,0.000001,-0.45280,0.00001,-5.30200,0.000003,0.000559,-0.000000,0.200585,settle,D1
1.96663,-5.58586,-0.00062,-10.69468,2.72819,-0.00209,0.20682,-0.000004,-0.000440,-3.140497,0.000010,-0.002212,0.000001,-0.35717,-0.00000,-6.33557,0.000003,0.000505,-0.000000,0.203818,settle,D1
1.97703,-5.58586,-0.00062,-10.69468,2.72819,-0.00209,0.20682,-0.000004,-0.000440,-3.140497,0.000010,-0.002212,0.000001,-0.35717,-0.00000,-6.33557,0.000003,0.000505,-0.000000,0.203818,settle,D1
1.98786,-5.58586,-0.00062,-10.69468,2.72819,-0.00209,0.20682,-0.000004,-0.000440,-3.140497,0.000010,-0.002212,0.000001,-0.35717,-0.00000,-6.33557,0.000003,0.000505,-0.000000,0.203818,settle,D1
1.99835,-5.60586,-0.00063,-10.69296,2.71492,-0.00206,0.33058,-0.000004,-0.000425,-3.140497,0.000009,-0.001840,-0.000001,-38.65829,0.00377,340.07254,0.000003,0.000470,0.000000,0.210178,settle,D1
2.00894,-5.60586,-0.00063,-10.69296,2.71492,-0.00206,0.33058,-0.000004,-0.000425,-3.140497,0.000009,-0.001840,-0.000001,-38.65829,0.00377,340.07254,0.000003,0.000470,0.000000,0.210178,settle,D1
2.01985,-5.70355,-0.00068,-10.68190,2.70926,-0.00204,0.38044,-0.000004,-0.000356,-3.140497,0.000009,-0.001761,-0.000001,-0.43982,0.00000,-6.09928,0.000003,0.000407,0.000000,0.213777,settle,D1
2.03025,-5.76695,-0.00071,-10.67244,2.70372,-0.00203,0.42722,-0.000004,-0.000315,-3.140497,0.000009,-0.001700,-0.000000,-0.35233,-0.00000,-6.88386,0.000003,0.000368,0.000000,0.217063,settle,D1
2.04106,-5.76695,-0.00071,-10.67244,2.70372,-0.00203,0.42722,-0.000004,-0.000315,-3.140497,0.000009,-0.001700,-0.000000,-0.35233,-0.00000,-6.88386,0.000003,0.000368,0.000000,0.217063,settle,D1
2.05187,-5.76695,-0.00071,-10.67244,2.70372,-0.00203,0.42722,-0.000004,-0.000315,-3.140497,0.000009,-0.001700,-0.000000,-0.35233,-0.00000,-6.88386,0.000003,0.000368,0.000000,0.217063,settle,D1
2.06250,-5.76695,-0.00071,-10.67244,2.70372,-0.00203,0.42722,-0.000004,-0.000315,-3.140497,0.000009,-0.001700,-0.000000,-0.35233,-0.00000,-6.88386,0.000003,0.000368,0.000000,0.217063,settle,D1
2.07304,-5.78672,-0.00072,-10.66915,2.69064,-0.00200,0.52917,-0.000004,-0.000303,-3.140497,0.000008,-0.001397,0.000000,-39.22874,0.00324,284.01575,0.000003,0.000341,0.000000,0.222489,settle,D1
2.08357,-5.88363,-0.00077,-10.65078,2.68507,-0.00199,0.56951,-0.000003,-0.000251,-3.140497,0.000008,-0.001321,0.000000,-0.43225,0.00000,-6.82155,0.000003,0.000291,0.000000,0.226343,settle,D1
2.09417,-5.94629,-0.00080,-10.63704,2.67962,-0.00198,0.60709,-0.000003,-0.000221,-3.140497,0.000008,-0.001269,0.000000,-0.33690,-0.00000,-7.52006,0.000002,0.000262,0.000000,0.229596,settle,D1
2.10507,-5.94629,-0.00080,-10.63704,2.67962,-0.00198,0.60709,-0.000003,-0.000221,-3.140497,0.000008,-0.001269,0.000000,-0.33690,-0.00000,-7.52006,0.000002,0.000262,0.000000,0.229596,settle,D1
2.11557,-5.94629,-0.00080,-10.63704,2.67962,-0.00198,0.60709,-0.000003,-0.000221,-3.140497,0.000008,-0.001269,0.000000,-0.33690,-0.00000,-7.52006,0.000002,0.000262,0.000000,0.229596,settle,D1
2.12613,-5.94629,-0.00080,-10.63704,2.67962,-0.00198,0.60709,-0.000003,-0.000221,-3.140497,0.000008,-0.001269,0.000000,-0.33690,-0.00000,-7.52006,0.000002,0.000262,0.000000,0.229596,settle,D1
2.13657,-5.94629,-0.00080,-10.63704,2.67962,-0.00198,0.60709,-0.000003,-0.000221,-3.140497,0.000008,-0.001269,0.000000,-38.22276,0.00265,217.76450,0.000002,0.000262,0.000000,0.229596,settle,D1
2.14731,-5.96613,-0.00081,-10.63240,2.66677,-0.00195,0.68750,-0.000003,-0.000211,-3.140497,0.000007,-0.001034,0.000000,-20.61486,0.00135,109.02152,0.000002,0.000241,0.000000,0.234080,settle,D1
2.15784,-6.10531,-0.00088,-10.59636,2.65838,-0.00193,0.73583,-0.000003,-0.000157,-3.140497,0.000006,-0.000980,-0.000000,-0.42639,0.00000,-7.39012,0.000002,0.000191,0.000000,0.240101,settle,D1
2.16889,-6.12375,-0.00089,-10.59116,2.65592,-0.00193,0.74970,-0.000003,-0.000150,-3.140497,0.000006,-0.000975,0.000000,-0.33117,-0.00000,-7.94516,0.000002,0.000184,0.000000,0.241315,settle,D1
2.17938,-6.12375,-0.00089,-10.59116,2.65592,-0.00193,0.74970,-0.000003,-0.000150,-3.140497,0.000006,-0.000975,0.000000,-0.33117,-0.00000,-7.94516,0.000002,0.000184,0.000000,0.241315,settle,D1
2.19000,-6.12375,-0.00089,-10.59116,2.65592,-0.00193,0.74970,-0.000003,-0.000150,-3.140497,0.000006,-0.000975,0.000000,-0.33117,-0.00000,-7.94516,0.000002,0.000184,0.000000,0.241315,settle,D1
2.20073,-6.14375,-0.00090,-10.58539,2.64571,-0.00190,0.80161,-0.000003,-0.000143,-3.140497,0.000006,-0.000812,0.000000,-35.48355,0.00206,152.79163,0.000002,0.000169,0.000000,0.244487,settle,D1
2.21107,-6.14375,-0.00090,-10.58539,2.64320,-0.00190,0.81311,-0.000003,-0.000143,-3.140497,0.000006,-0.000772,0.000000,-19.10529,0.00104,70.85651,0.000002,0.000167,0.000000,0.245062,settle,D1
2.22178,-6.28227,-0.00097,-10.54269,2.63490,-0.00188,0.84823,-0.000002,-0.000102,-3.140497,0.000006,-0.000691,0.000000,-0.42363,0.00000,-8.09566,0.000002,0.000127,0.000000,0.251088,settle,D1
2.23262,-6.28227,-0.00097,-10.54269,2.63490,-0.00188,0.84823,-0.000002,-0.000102,-3.140497,0.000006,-0.000691,0.000000,-0.42363,0.00000,-8.09566,0.000002,0.000127,0.000000,0.251088,settle,D1
2.24301,-6.28227,-0.00097,-10.54269,2.63490,-0.00188,0.84823,-0.000002,-0.000102,-3.140497,0.000006,-0.000691,0.000000,-0.42363,0.00000,-8.09566,0.000002,0.000127,0.000000,0.251088,settle,D1
2.25363,-6.30055,-0.00098,-10.53673,2.62556,-0.00186,0.88180,-0.000002,-0.000097,-3.140497,0.000005,-0.000596,0.000000,-38.81402,0.00193,118.23591,0.000002,0.000117,0.000000,0.253362,settle,D1
2.26419,-6.37066,-0.00102,-10.51329,2.62324,-0.00185,0.88912,-0.000002,-0.000080,-3.140497,0.000005,-0.000573,0.000000,-0.34759,-0.00000,-8.71404,0.000002,0.000102,0.000000,0.256073,settle,D1
2.27473,-6.37066,-0.00102,-10.51329,2.62324,-0.00185,0.88912,-0.000002,-0.000080,-3.140497,0.000005,-0.000573,0.000000,-0.34759,-0.00000,-8.71404,0.000002,0.000102,0.000000,0.256073,settle,D1
2.28523,-6.37066,-0.00102,-10.51329,2.62324,-0.00185,0.88912,-0.000002,-0.000080,-3.140497,0.000005,-0.000573,0.000000,-43.34916,0.00198,97.66892,0.000002,0.000102,0.000000,0.256073,settle,D1
2.29596,-6.45719,-0.00106,-10.48325,2.61188,-0.00183,0.91941,-0.000002,-0.000064,-3.140497,0.000005,-0.000474,0.000000,-0.33528,-0.00000,-9.02201,0.000002,0.000082,0.000000,0.260591,settle,D1
2.30653,-6.45719,-0.00106,-10.48325,2.61188,-0.00183,0.91941,-0.000002,-0.000064,-3.140497,0.000005,-0.000474,0.000000,-0.33528,-0.00000,-9.02201,0.000002,0.000082,0.000000,0.260591,settle,D1
2.31678,-6.47531,-0.00107,-10.47682,2.60265,-0.00181,0.93749,-0.000002,-0.000060,-3.140497,0.000004,-0.000412,0.000000,-34.04502,0.00140,48.46550,0.000002,0.000075,0.000000,0.262138,settle,D1
2.32702,-6.47531,-0.00107,-10.47682,2.60265,-0.00181,0.93749,-0.000002,-0.000060,-3.140497,0.000004,-0.000412,0.000000,-0.34044,-0.00000,-9.26785,0.000002,0.000075,0.000000,0.262138,settle,D1
2.33769,-6.54523,-0.00111,-10.45170,2.60036,-0.00180,0.94115,-0.000002,-0.000049,-3.140497,0.000004,-0.000400,0.000000,-0.34044,-0.00000,-9.26785,0.000001,0.000065,0.000000,0.264832,settle,D1
2.34828,-6.56328,-0.00112,-10.44514,2.59141,-0.00178,0.95219,-0.000002,-0.000046,-3.140497,0.000004,-0.000347,-0.000000,-34.76219,0.00129,24.96721,0.000001,0.000060,0.000000,0.266041,settle,D1
2.35893,-6.63086,-0.00116,-10.42034,2.58920,-0.00178,0.95416,-0.000002,-0.000037,-3.140497,0.000004,-0.000336,0.000000,-0.32529,-0.00000,-9.52104,0.000001,0.000051,0.000000,0.268620,settle,D1
2.36957,-6.63086,-0.00116,-10.42034,2.58920,-0.00178,0.95416,-0.000002,-0.000037,-3.140497,0.000004,-0.000336,0.000000,-0.32529,-0.00000,-9.52104,0.000001,0.000051,0.000000,0.268620,settle,D1
2.38023,-6.63086,-0.00116,-10.42034,2.58920,-0.00178,0.95416,-0.000002,-0.000037,-3.140497,0.000004,-0.000336,0.000000,-0.32529,-0.00000,-9.52104,0.000001,0.000051,0.000000,0.268620,settle,D1
2.39077,-6.71734,-0.00121,-10.38825,2.57798,-0.00175,0.95951,-0.000002,-0.000027,-3.140497,0.000004,-0.000279,-0.000000,-0.33111,-0.00000,-9.73910,0.000001,0.000039,0.000000,0.272096,settle,D1
2.40127,-6.71734,-0.00121,-10.38825,2.57798,-0.00175,0.95951,-0.000002,-0.000027,-3.140497,0.000004,-0.000279,-0.000000,-0.33111,-0.00000,-9.73910,0.000001,0.000039,0.000000,0.272096,settle,D1
2.41192,-6.73523,-0.00122,-10.38158,2.56910,-0.00173,0.95854,-0.000002,-0.000025,-3.140497,0.000004,-0.000240,0.000000,-0.08829,-0.00001,-9.79932,0.000001,0.000035,0.000000,0.272715,settle,D1
2.42278,-6.73523,-0.00122,-10.38158,2.56910,-0.00173,0.95854,-0.000002,-0.000025,-3.140497,0.000004,-0.000240,0.000000,-0.32462,-0.00000,-9.94371,0.000001,0.000035,0.000000,0.272715,settle,D1
2.43348,-6.80297,-0.00126,-10.35630,2.56691,-0.00173,0.95766,-0.000002,-0.000019,-3.140497,0.000003,-0.000231,0.000000,-0.32462,-0.00000,-9.94371,0.000001,0.000029,0.000000,0.275198,settle,D1
2.44440,-6.80297,-0.00126,-10.35630,2.56691,-0.00173,0.95766,-0.000002,-0.000019,-3.140497,0.000003,-0.000231,0.000000,-39.54513,0.00105,-45.89682,0.000001,0.000029,0.000000,0.275198,settle,D1
2.45537,-6.88824,-0.00131,-10.32456,2.55594,-0.00170,0.94910,-0.000001,-0.000012,-3.140497,0.000003,-0.000189,0.000000,-0.32107,-0.00000,-10.13153,0.000001,0.000021,0.000000,0.277944,settle,D1
2.46582,-6.88824,-0.00131,-10.32456,2.55594,-0.00170,0.94910,-0.000001,-0.000012,-3.140497,0.000003,-0.000189,0.000000,-0.32107,-0.00000,-10.13153,0.000001,0.000021,0.000000,0.277944,settle,D1
2.47650,-6.88824,-0.00131,-10.32456,2.55594,-0.00170,0.94910,-0.000001,-0.000012,-3.140497,0.000003,-0.000189,0.000000,-0.32107,-0.00000,-10.13153,0.000001,0.000021,0.000000,0.277944,settle,D1
2.48675,-6.90598,-0.00132,-10.31799,2.54715,-0.00168,0.93787,-0.000001,-0.000012,-3.140497,0.000003,-0.000161,0.000000,-34.14455,0.00080,-59.32081,0.000001,0.000019,0.000000,0.278040,settle,D1
2.49740,-6.97375,-0.00136,-10.29300,2.54498,-0.00168,0.93457,-0.000001,-0.000006,-3.140497,0.000003,-0.000155,0.000000,-0.32330,-0.00000,-10.30555,0.000001,0.000014,0.000000,0.280373,settle,D1
2.50764,-6.97375,-0.00136,-10.29300,2.54498,-0.00168,0.93457,-0.000001,-0.000006,-3.140497,0.000003,-0.000155,0.000000,-0.32330,-0.00000,-10.30555,0.000001,0.000014,0.000000,0.280373,settle,D1
2.51848,-6.97375,-0.00136,-10.29300,2.54498,-0.00168,0.93457,-0.000001,-0.000006,-3.140497,0.000003,-0.000155,0.000000,-35.67854,0.00074,-79.05524,0.000001,0.000014,0.000000,0.280373,settle,D1
2.52913,-7.05824,-0.00141,-10.26227,2.53419,-0.00165,0.91484,-0.000001,-0.000002,-3.140497,0.000003,-0.000126,0.000000,-0.32126,-0.00000,-10.45847,0.000001,0.000009,0.000000,0.282460,settle,D1
2.53965,-7.05824,-0.00141,-10.26227,2.53419,-0.00165,0.91484,-0.000001,-0.000002,-3.140497,0.000003,-0.000126,0.000000,-0.32126,-0.00000,-10.45847,0.000001,0.000009,0.000000,0.282460,settle,D1
2.54996,-7.05824,-0.00141,-10.26227,2.53419,-0.00165,0.91484,-0.000001,-0.000002,-3.140497,0.000003,-0.000126,0.000000,-32.98704,0.00059,-88.82586,0.000001,0.000009,0.000000,0.282460,settle,D1
2.56060,-7.14227,-0.00146,-10.23235,2.52351,-0.00163,0.89037,-0.000001,0.000002,-3.140497,0.000002,-0.000100,0.000000,-0.31049,-0.00000,-10.57590,0.000001,0.000004,0.000000,0.284229,settle,D1
2.57122,-7.14227,-0.00146,-10.23235,2.52351,-0.00163,0.89037,-0.000001,0.000002,-3.140497,0.000002,-0.000100,0.000000,-0.31049,-0.00000,-10.57590,0.000001,0.000004,0.000000,0.284229,settle,D1
2.58163,-7.15977,-0.00146,-10.22621,2.51484,-0.00161,0.86715,-0.000001,0.000002,-3.140497,0.000002,-0.000082,0.000000,-29.75119,0.00046,-93.42606,0.000001,0.000003,0.000000,0.283682,settle,D1
2.59236,-7.15977,-0.00146,-10.22621,2.51484,-0.00161,0.86715,-0.000001,0.000002,-3.140497,0.000002,-0.000082,0.000000,-0.32192,-0.00000,-10.73582,0.000001,0.000003,0.000000,0.283682,settle,D1
2.60315,-7.22766,-0.00150,-10.20273,2.51270,-0.00161,0.86100,-0.000001,0.000005,-3.140497,0.000002,-0.000079,0.000000,-0.32192,-0.00000,-10.73582,0.000001,0.000000,0.000000,0.285722,settle,D1
2.61385,-7.22766,-0.00150,-10.20273,2.51270,-0.00161,0.86100,-0.000001,0.000005,-3.140497,0.000002,-0.000079,0.000000,-0.32192,-0.00000,-10.73582,0.000001,0.000000,0.000000,0.285722,settle,D1
2.62450,-7.31031,-0.00155,-10.17497,2.50228,-0.00158,0.82879,-0.000001,0.000007,-3.140497,0.000002,-0.000061,0.000000,-0.31078,-0.00000,-10.81369,0.000001,-0.000003,0.000000,0.286888,settle,D1
2.63484,-7.31031,-0.00155,-10.17497,2.50228,-0.00158,0.82879,-0.000001,0.000007,-3.140497,0.000002,-0.000061,0.000000,-0.31078,-0.00000,-10.81369,0.000001,-0.000003,0.000000,0.286888,settle,D1
2.64570,-7.31031,-0.00155,-10.17497,2.50228,-0.00158,0.82879,-0.000001,0.000007,-3.140497,0.000002,-0.000061,0.000000,-0.31078,-0.00000,-10.81369,0.000001,-0.000003,0.000000,0.286888,settle,D1
2.65631,-7.39336,-0.00160,-10.14810,2.49185,-0.00156,0.79313,-0.000001,0.000007,-3.140497,0.000002,-0.000046,0.000000,-0.30922,-0.00000,-10.90444,0.000001,-0.000004,0.000000,0.287792,settle,D1
2.66680,-7.39336,-0.00160,-10.14810,2.49185,-0.00156,0.79313,-0.000001,0.000007,-3.140497,0.000002,-0.000046,0.000000,-0.30922,-0.00000,-10.90444,0.000001,-0.000004,0.000000,0.287792,settle,D1
2.67722,-7.39336,-0.00160,-10.14810,2.49185,-0.00156,0.79313,-0.000001,0.000007,-3.140497,0.000002,-0.000046,0.000000,-29.56140,0.00026,-120.94796,0.000001,-0.000004,0.000000,0.287792,settle,D1
2.68769,-7.41066,-0.00161,-10.14265,2.48352,-0.00154,0.76251,-0.000001,0.000009,-3.140497,0.000002,-0.000038,0.000000,-0.30742,-0.00000,-10.97941,0.000001,-0.000006,0.000000,0.286806,settle,D1
2.69829,-7.47637,-0.00165,-10.12239,2.48147,-0.00154,0.75472,-0.000001,0.000009,-3.140497,0.000002,-0.000036,0.000000,-0.30742,-0.00000,-10.97941,0.000001,-0.000006,0.000000,0.288443,settle,D1
2.70879,-7.47637,-0.00165,-10.12239,2.48147,-0.00154,0.75472,-0.000001,0.000009,-3.140497,0.000002,-0.000036,0.000000,-0.30742,-0.00000,-10.97941,0.000001,-0.000006,0.000000,0.288443,settle,D1
2.71930,-7.47637,-0.00165,-10.12239,2.48147,-0.00154,0.75472,-0.000001,0.000009,-3.140497,0.000002,-0.000036,0.000000,-34.35854,0.00022,-146.74376,0.000001,-0.000006,0.000000,0.288443,settle,D1
2.72990,-7.55879,-0.00170,-10.09806,2.47120,-0.00151,0.71432,-0.000001,0.000011,-3.140497,0.000002,-0.000025,-0.000000,-0.30487,-0.00000,-11.03627,0.000001,-0.000008,0.000000,0.288855,settle,D1
2.74026,-7.55879,-0.00170,-10.09806,2.47120,-0.00151,0.71432,-0.000001,0.000011,-3.140497,0.000002,-0.000025,-0.000000,-0.30487,-0.00000,-11.03627,0.000001,-0.000008,0.000000,0.288855,settle,D1
2.75086,-7.57594,-0.00171,-10.09316,2.46300,-0.00150,0.68059,-0.000001,0.000011,-3.140497,0.000002,-0.000016,0.000000,-27.34145,0.00013,-123.74609,0.000001,-0.000009,0.000000,0.287659,settle,D1
2.76156,-7.57594,-0.00171,-10.09316,2.46300,-0.00150,0.68059,-0.000001,0.000011,-3.140497,0.000002,-0.000016,0.000000,-0.30189,-0.00000,-11.07715,0.000001,-0.000009,0.000000,0.287659,settle,D1
2.77205,-7.64117,-0.00175,-10.07502,2.46098,-0.00149,0.67212,-0.000001,0.000011,-3.140497,0.000002,-0.000014,0.000000,-0.30189,-0.00000,-11.07715,0.000001,-0.000009,0.000000,0.289049,settle,D1
2.78264,-7.64117,-0.00175,-10.07502,2.46098,-0.00149,0.67212,-0.000001,0.000011,-3.140497,0.000002,-0.000014,0.000000,-0.30189,-0.00000,-11.07715,0.000001,-0.000009,0.000000,0.289049,settle,D1
2.79336,-7.72301,-0.00180,-10.05348,2.45087,-0.00147,0.62887,-0.000001,0.000011,-3.140497,0.000002,-0.000008,0.000000,-0.29375,-0.00001,-11.08198,0.000001,-0.000009,0.000000,0.289041,settle,D1
2.80405,-7.72301,-0.00180,-10.05348,2.45087,-0.00147,0.62887,-0.000001,0.000011,-3.140497,0.000002,-0.000008,0.000000,-0.29375,-0.00001,-11.08198,0.000001,-0.000009,0.000000,0.289041,settle,D1
2.81473,-7.72301,-0.00180,-10.05348,2.45087,-0.00147,0.62887,-0.000001,0.000011,-3.140497,0.000002,-0.000008,0.000000,-23.83192,0.00001,-114.79644,0.000001,-0.000009,0.000000,0.289041,settle,D1
2.82531,-7.80504,-0.00185,-10.03328,2.44078,-0.00145,0.58461,-0.000001,0.000011,-3.140497,0.000002,-0.000003,0.000000,-0.29881,-0.00001,-11.13181,0.000001,-0.000010,0.000000,0.288848,settle,D1
2.83587,-7.80504,-0.00185,-10.03328,2.44078,-0.00145,0.58461,-0.000001,0.000011,-3.140497,0.000002,-0.000003,0.000000,-0.29881,-0.00001,-11.13181,0.000001,-0.000010,0.000000,0.288848,settle,D1
2.84615,-7.80504,-0.00185,-10.03328,2.44078,-0.00145,0.58461,-0.000001,0.000011,-3.140497,0.000002,-0.000003,0.000000,-0.29881,-0.00001,-11.13181,0.000001,-0.000010,0.000000,0.288848,settle,D1
2.85694,-7.82199,-0.00186,-10.02928,2.43281,-0.00143,0.54911,-0.000001,0.000011,-3.140497,0.000002,0.000000,0.000000,-0.29351,-0.00001,-11.12435,0.000001,-0.000010,0.000000,0.287473,settle,D1
2.86742,-7.88613,-0.00189,-10.01471,2.43085,-0.00143,0.54035,-0.000001,0.000011,-3.140497,0.000001,0.000001,0.000000,-0.29351,-0.00001,-11.12435,0.000001,-0.000010,0.000000,0.288491,settle,D1
2.87778,-7.88613,-0.00189,-10.01471,2.43085,-0.00143,0.54035,-0.000001,0.000011,-3.140497,0.000001,0.000001,0.000000,-0.29351,-0.00001,-11.12435,0.000001,-0.000010,0.000000,0.288491,settle,D1
2.88853,-7.96648,-0.00194,-9.99768,2.42104,-0.00140,0.49653,-0.000001,0.000011,-3.140497,0.000002,0.000004,0.000000,-0.29223,-0.00001,-11.10794,0.000001,-0.000010,0.000000,0.288004,settle,D1
2.89899,-7.96648,-0.00194,-9.99768,2.42104,-0.00140,0.49653,-0.000001,0.000011,-3.140497,0.000002,0.000004,0.000000,-0.29223,-0.00001,-11.10794,0.000001,-0.000010,0.000000,0.288004,settle,D1
2.90962,-7.96648,-0.00194,-9.99768,2.42104,-0.00140,0.49653,-0.000001,0.000011,-3.140497,0.000002,0.000004,0.000000,-0.29223,-0.00001,-11.10794,0.000001,-0.000010,0.000000,0.288004,settle,D1
2.92040,-8.04730,-0.00199,-9.98192,2.41122,-0.00138,0.45385,-0.000001,0.000011,-3.140497,0.000002,0.000008,0.000000,-27.26186,-0.00014,-127.03524,0.000001,-0.000010,0.000000,0.287446,settle,D1
2.93097,-8.04730,-0.00199,-9.98192,2.41122,-0.00138,0.45385,-0.000001,0.000011,-3.140497,0.000002,0.000008,0.000000,-0.29012,-0.00001,-11.05398,0.000001,-0.000010,0.000000,0.287446,settle,D1
2.94151,-8.04730,-0.00199,-9.98192,2.41122,-0.00138,0.45385,-0.000001,0.000011,-3.140497,0.000002,0.000008,0.000000,-0.29012,-0.00001,-11.05398,0.000001,-0.000010,0.000000,0.287446,settle,D1
2.95184,-8.06402,-0.00200,-9.97882,2.40337,-0.00136,0.42088,-0.000001,0.000011,-3.140497,0.000002,0.000010,0.000000,-0.28940,-0.00001,-11.00682,0.000001,-0.000010,0.000000,0.286107,settle,D1
2.96250,-8.12809,-0.00204,-9.96749,2.40144,-0.00136,0.41288,-0.000001,0.000011,-3.140497,0.000002,0.000011,0.000000,-0.28940,-0.00001,-11.00682,0.000001,-0.000010,0.000000,0.286840,settle,D1
2.97340,-8.12809,-0.00204,-9.96749,2.40144,-0.00136,0.41288,-0.000001,0.000011,-3.140497,0.000002,0.000011,0.000000,-0.28940,-0.00001,-11.00682,0.000001,-0.000010,0.000000,0.286840,settle,D1
2.98387,-8.12809,-0.00204,-9.96749,2.40144,-0.00136,0.41288,-0.000001,0.000011,-3.140497,0.000002,0.000011,0.000000,-32.50961,-0.00030,-139.75951,0.000001,-0.000010,0.000000,0.286840,settle,D1
2.99438,-8.20770,-0.00209,-9.95455,2.39184,-0.00134,0.37409,-0.000001,0.000011,-3.140497,0.000001,0.000013,-0.000000,-0.28127,-0.00001,-10.93234,0.000001,-0.000010,0.000000,0.286195,settle,D1
3.00487,-8.20770,-0.00209,-9.95455,2.39184,-0.00134,0.37409,-0.000001,0.000011,-3.140497,0.000001,0.000013,-0.000000,-0.28127,-0.00001,-10.93234,0.000001,-0.000010,0.000000,0.286195,settle,D1
3.01513,-8.20770,-0.00209,-9.95455,2.39184,-0.00134,0.37409,-0.000001,0.000011,-3.140497,0.000001,0.000013,-0.000000,-33.57095,-0.00037,-139.18370,0.000001,-0.000010,0.000000,0.286195,settle,D1
3.02591,-8.22430,-0.00210,-9.95201,2.38415,-0.00132,0.34404,-0.000001,0.000011,-3.140497,0.000002,0.000015,0.000000,-0.28330,-0.00001,-10.90037,0.000001,-0.000011,0.000000,0.284947,settle,D1
3.03659,-8.28746,-0.00214,-9.94281,2.38226,-0.00132,0.33676,-0.000001,0.000011,-3.140497,0.000002,0.000015,0.000000,-0.28330,-0.00001,-10.90037,0.000001,-0.000011,0.000000,0.285503,settle,D1
3.04738,-8.28746,-0.00214,-9.94281,2.38226,-0.00132,0.33676,-0.000001,0.000011,-3.140497,0.000002,0.000015,0.000000,-31.67456,-0.00041,-127.31809,0.000001,-0.000011,0.000000,0.285503,settle,D1
3.05775,-8.36605,-0.00219,-9.93238,2.37286,-0.00130,0.30146,-0.000001,0.000011,-3.140497,0.000001,0.000016,0.000000,-0.27338,-0.00001,-10.82295,0.000001,-0.000011,0.000000,0.284781,settle,D1
3.06831,-8.36605,-0.00219,-9.93238,2.37286,-0.00130,0.30146,-0.000001,0.000011,-3.140497,0.000001,0.000016,0.000000,-0.27338,-0.00001,-10.82295,0.000001,-0.000011,0.000000,0.284781,settle,D1
3.07884,-8.36605,-0.00219,-9.93238,2.37286,-0.00130,0.30146,-0.000001,0.000011,-3.140497,0.000001,0.000016,0.000000,-0.27338,-0.00001,-10.82295,0.000001,-0.000011,0.000000,0.284781,settle,D1
3.08954,-8.44605,-0.00224,-9.92290,2.36334,-0.00128,0.26710,-0.000001,0.000011,-3.140497,0.000002,0.000018,0.000000,-0.28242,-0.00001,-10.81463,0.000001,-0.000011,0.000000,0.284010,settle,D1
3.10014,-8.44605,-0.00224,-9.92290,2.36334,-0.00128,0.26710,-0.000001,0.000011,-3.140497,0.000002,0.000018,0.000000,-0.28242,-0.00001,-10.81463,0.000001,-0.000011,0.000000,0.284010,settle,D1
3.11090,-8.44605,-0.00224,-9.92290,2.36334,-0.00128,0.26710,-0.000001,0.000011,-3.140497,0.000002,0.000018,0.000000,-0.28242,-0.00001,-10.81463,0.000001,-0.000011,0.000000,0.284010,settle,D1
3.12137,-8.46246,-0.00225,-9.92110,2.35588,-0.00126,0.24122,-0.000001,0.000011,-3.140497,0.000002,0.000019,0.000000,-27.84098,-0.00048,-104.69453,0.000001,-0.000011,0.000000,0.282896,settle,D1
3.13203,-8.52430,-0.00229,-9.91469,2.35406,-0.00126,0.23499,-0.000000,0.000009,-3.140497,0.000002,0.000019,-0.000000,-0.27332,-0.00000,-10.74016,0.000000,-0.000009,0.000000,0.283226,settle,D1
3.14247,-8.52430,-0.00229,-9.91469,2.35406,-0.00126,0.23499,-0.000000,0.000009,-3.140497,0.000002,0.000019,-0.000000,-0.27332,-0.00000,-10.74016,0.000000,-0.000009,0.000000,0.283226,settle,D1
3.15310,-8.52430,-0.00229,-9.91469,2.35406,-0.00126,0.23499,-0.000000,0.000009,-3.140497,0.000002,0.000019,-0.000000,-24.79178,-0.00042,-90.36398,0.000000,-0.000009,0.000000,0.283226,settle,D1
3.16366,-8.60277,-0.00233,-9.90745,2.34478,-0.00124,0.20437,-0.000000,0.000009,-3.140497,0.000000,0.000016,-0.000000,-0.27576,-0.00000,-10.70475,0.000000,-0.000009,0.000000,0.282419,settle,D1
3.17413,-8.60277,-0.00233,-9.90745,2.34478,-0.00124,0.20437,-0.000000,0.000009,-3.140497,0.000000,0.000016,-0.000000,-0.27576,-0.00000,-10.70475,0.000000,-0.000009,0.000000,0.282419,settle,D1
3.18460,-8.61906,-0.00234,-9.90607,2.33744,-0.00122,0.18122,-0.000000,0.000009,-3.140497,0.000001,0.000016,0.000000,-29.74274,-0.00053,-101.68929,0.000000,-0.000009,0.000000,0.281400,settle,D1
3.19495,-8.68039,-0.00238,-9.90125,2.33564,-0.00122,0.17567,-0.000000,0.000009,-3.140497,0.000001,0.000016,0.000000,-0.27037,-0.00000,-10.64416,0.000000,-0.000009,0.000000,0.281604,settle,D1
3.20521,-8.68039,-0.00238,-9.90125,2.33564,-0.00122,0.17567,-0.000000,0.000009,-3.140497,0.000001,0.000016,0.000000,-0.27037,-0.00000,-10.64416,0.000000,-0.000009,0.000000,0.281604,settle,D1
3.21563,-8.68039,-0.00238,-9.90125,2.33564,-0.00122,0.17567,-0.000000,0.000009,-3.140497,0.000001,0.000016,0.000000,-29.98211,-0.00056,-97.54976,0.000000,-0.000009,0.000000,0.281604,settle,D1
3.22627,-8.75844,-0.00243,-9.89591,2.32649,-0.00120,0.14840,-0.000000,0.000009,-3.140497,0.000000,0.000017,0.000000,-0.26771,-0.00000,-10.59263,0.000000,-0.000009,0.000000,0.280774,settle,D1
3.23665,-8.75844,-0.00243,-9.89591,2.32649,-0.00120,0.14840,-0.000000,0.000009,-3.140497,0.000000,0.000017,0.000000,-0.26771,-0.00000,-10.59263,0.000000,-0.000009,0.000000,0.280774,settle,D1
3.24719,-8.75844,-0.00243,-9.89591,2.32649,-0.00120,0.14840,-0.000000,0.000009,-3.140497,0.000000,0.000017,0.000000,-0.26771,-0.00000,-10.59263,0.000000,-0.000009,0.000000,0.280774,settle,D1
3.25777,-8.83562,-0.00248,-9.89149,2.31747,-0.00118,0.12298,-0.000000,0.000007,-3.140497,0.000000,0.000017,0.000000,-0.26498,-0.00001,-10.54141,0.000000,-0.000007,0.000000,0.279946,settle,D1
3.26822,-8.83562,-0.00248,-9.89149,2.31747,-0.00118,0.12298,-0.000000,0.000007,-3.140497,0.000000,0.000017,0.000000,-0.26498,-0.00001,-10.54141,0.000000,-0.000007,0.000000,0.279946,settle,D1
