t,x,y,z,vx_b,vy_b,vz_b,phi,theta,psi,p,q,r,ax_b,ay_b,az_b,cmd_roll,cmd_pitch,cmd_yaw,cmd_thrust,phase_tag,regime_id
0.00000,-0.00047,0.00007,0.02055,0.00000,0.00000,0.00000,-0.000255,-0.310698,-3.140529,0.000000,0.000000,-0.000000,-2.99915,-0.00238,-9.34030,0.000220,0.267025,0.000000,0.278326,settle,P0
0.01116,-0.00047,0.00007,0.02055,0.00000,0.00000,0.00000,-0.000255,-0.310698,-3.140529,0.000000,0.000000,-0.000000,-2.99915,-0.00238,-9.34030,0.000220,0.267025,0.000000,0.278326,settle,P0
0.02185,-0.00047,0.00006,0.02059,-0.00039,0.00042,0.00638,-0.000327,-0.310674,-3.140511,-0.009088,-0.010483,-0.000172,-3.04993,0.05195,-8.49925,0.000815,0.267605,-0.000012,0.278643,settle,P0
0.03221,-0.00047,0.00006,0.02059,-0.00039,0.00042,0.00638,-0.000327,-0.310674,-3.140511,-0.009088,-0.010483,-0.000172,-3.04993,0.05195,-8.49925,0.000815,0.267605,-0.000012,0.278643,settle,P0
0.04287,-0.00047,0.00006,0.02059,-0.00039,0.00042,0.00638,-0.000327,-0.310674,-3.140511,-0.009088,-0.010483,-0.000172,-3.04993,0.05195,-8.49925,0.000815,0.267605,-0.000012,0.278643,settle,P0
0.05353,-0.00047,0.00006,0.02060,0.01532,-0.00007,-0.00840,-0.000341,-0.310684,-3.140527,-0.000118,-0.108650,0.000387,-3.04993,0.05195,-8.49925,0.000300,0.273239,-0.000048,0.277905,settle,P0
0.06422,-0.00047,0.00006,0.02060,0.01532,-0.00007,-0.00840,-0.000341,-0.310684,-3.140527,-0.000118,-0.108650,0.000387,100.13210,0.71856,-114.62952,0.000300,0.273239,-0.000048,0.277905,settle,P0
0.07455,-0.00047,0.00006,0.02060,0.01532,-0.00007,-0.00840,-0.000341,-0.310684,-3.140527,-0.000118,-0.108650,0.000387,-1.25453,0.01801,-11.64566,0.000300,0.273239,-0.000048,0.277905,settle,P0
0.08510,-0.00164,0.00005,0.02000,0.04310,0.00023,-0.04975,-0.000345,-0.300517,-3.140399,-0.001909,-0.573449,0.000291,-1.38406,-0.06264,-10.96119,0.000409,0.291132,-0.000258,0.274946,settle,P0
0.09537,-0.00211,0.00005,0.01971,0.05437,-0.00025,-0.06134,-0.000251,-0.295720,-3.140388,0.014033,-0.695549,0.000483,-1.38406,-0.06264,-10.96119,-0.000608,0.294005,-0.000299,0.273958,settle,P0
0.10604,-0.00211,0.00005,0.01971,0.05437,-0.00025,-0.06134,-0.000251,-0.295720,-3.140388,0.014033,-0.695549,0.000483,-1.38406,-0.06264,-10.96119,-0.000608,0.294005,-0.000299,0.273958,settle,P0
0.11643,-0.00211,0.00005,0.01971,0.05437,-0.00025,-0.06134,-0.000251,-0.295720,-3.140388,0.014033,-0.695549,0.000483,-1.38406,-0.06264,-10.96119,-0.000608,0.294005,-0.000299,0.273958,settle,P0
0.12712,-0.00273,0.00006,0.01934,0.13415,-0.00034,-0.09599,-0.000171,-0.289808,-3.140375,-0.003932,-0.985645,-0.001030,204.89069,2.95970,-52.09869,0.000378,0.305545,-0.000147,0.271732,settle,P0
0.13748,-0.00770,0.00006,0.01736,0.17608,-0.00037,-0.09690,-0.000308,-0.256020,-3.140391,-0.001352,-0.918641,-0.001248,115.58420,0.13597,-27.60559,0.000344,0.272667,-0.000094,0.269083,settle,P0
0.14820,-0.01266,0.00006,0.01624,0.21414,-0.00040,-0.09934,-0.000302,-0.235673,-3.140426,0.001098,-0.825417,-0.001038,-0.04612,-0.00005,-9.93942,0.000195,0.249839,-0.000060,0.267567,settle,P0
0.15887,-0.01266,0.00006,0.01624,0.21414,-0.00040,-0.09934,-0.000302,-0.235673,-3.140426,0.001098,-0.825417,-0.001038,-0.04612,-0.00005,-9.93942,0.000195,0.249839,-0.000060,0.267567,settle,P0
0.16959,-0.01266,0.00006,0.01624,0.21414,-0.00040,-0.09934,-0.000302,-0.235673,-3.140426,0.001098,-0.825417,-0.001038,-0.04612,-0.00005,-9.93942,0.000195,0.249839,-0.000060,0.267567,settle,P0
0.18039,-0.01266,0.00006,0.01624,0.21414,-0.00040,-0.09934,-0.000302,-0.235673,-3.140426,0.001098,-0.825417,-0.001038,-0.04612,-0.00005,-9.93942,0.000195,0.249839,-0.000060,0.267567,settle,P0
0.19108,-0.01445,0.00006,0.01591,0.29323,-0.00048,-0.11201,-0.000287,-0.230100,-3.140434,0.001246,-0.632846,-0.000069,212.02133,0.24082,-48.16979,0.000174,0.234016,-0.000156,0.266573,settle,P0
0.20160,-0.02504,0.00006,0.01437,0.32704,-0.00052,-0.10996,-0.000231,-0.206545,-3.140450,0.000781,-0.625016,0.000099,90.01616,0.09935,-23.74535,0.000153,0.213323,-0.000148,0.265257,settle,P0
0.21209,-0.02504,0.00006,0.01437,0.32704,-0.00052,-0.10996,-0.000231,-0.206545,-3.140450,0.000781,-0.625016,0.000099,0.44930,0.00050,-9.95611,0.000153,0.213323,-0.000148,0.265257,settle,P0
0.22270,-0.03340,0.00006,0.01344,0.35800,-0.00056,-0.10921,-0.000214,-0.191970,-3.140451,0.000638,-0.619825,0.000037,-0.07768,-0.00008,-9.87598,0.000147,0.200500,-0.000139,0.264498,settle,P0
0.23319,-0.03340,0.00006,0.01344,0.35800,-0.00056,-0.10921,-0.000214,-0.191970,-3.140451,0.000638,-0.619825,0.000037,-0.07768,-0.00008,-9.87598,0.000147,0.200500,-0.000139,0.264498,settle,P0
0.24376,-0.03340,0.00006,0.01344,0.35800,-0.00056,-0.10921,-0.000214,-0.191970,-3.140451,0.000638,-0.619825,0.000037,-0.07768,-0.00008,-9.87598,0.000147,0.200500,-0.000139,0.264498,settle,P0
0.25436,-0.03340,0.00006,0.01344,0.35800,-0.00056,-0.10921,-0.000214,-0.191970,-3.140451,0.000638,-0.619825,0.000037,159.41158,0.17581,-24.21612,0.000147,0.200500,-0.000139,0.264498,settle,P0
0.26468,-0.03629,0.00006,0.01315,0.42285,-0.00063,-0.11435,-0.000209,-0.187487,-3.140453,0.000659,-0.528016,-0.000331,-0.90549,-0.00097,-9.70673,0.000141,0.191386,-0.000094,0.264009,settle,P0
0.27527,-0.05148,0.00006,0.01191,0.45050,-0.00066,-0.10706,-0.000184,-0.168043,-3.140466,0.000649,-0.524867,-0.000400,0.39646,0.00044,-9.69925,0.000120,0.174495,-0.000064,0.263433,settle,P0
0.28596,-0.06262,0.00006,0.01125,0.47572,-0.00068,-0.10134,-0.000167,-0.155662,-3.140478,0.000621,-0.522555,-0.000394,-0.05536,-0.00004,-9.66796,0.000107,0.163722,-0.000043,0.263176,settle,P0
0.29650,-0.06262,0.00006,0.01125,0.47572,-0.00068,-0.10134,-0.000167,-0.155662,-3.140478,0.000621,-0.522555,-0.000394,-0.05536,-0.00004,-9.66796,0.000107,0.163722,-0.000043,0.263176,settle,P0
0.30721,-0.06262,0.00006,0.01125,0.47572,-0.00068,-0.10134,-0.000167,-0.155662,-3.140478,0.000621,-0.522555,-0.000394,-0.05536,-0.00004,-9.66796,0.000107,0.163722,-0.000043,0.263176,settle,P0
0.31746,-0.06262,0.00006,0.01125,0.47572,-0.00068,-0.10134,-0.000167,-0.155662,-3.140478,0.000621,-0.522555,-0.000394,-0.05536,-0.00004,-9.66796,0.000107,0.163722,-0.000043,0.263176,settle,P0
0.32824,-0.06629,0.00006,0.01107,0.52806,-0.00074,-0.09510,-0.000162,-0.151955,-3.140481,0.000477,-0.431592,-0.000125,156.95154,0.16630,7.71925,0.000111,0.155324,-0.000069,0.263334,settle,P0
0.33918,-0.06629,0.00006,0.01107,0.52806,-0.00074,-0.09510,-0.000162,-0.151955,-3.140481,0.000477,-0.431592,-0.000125,58.13647,0.06116,-2.43213,0.000111,0.155324,-0.000069,0.263334,settle,P0
0.34975,-0.09434,0.00006,0.01036,0.56093,-0.00077,-0.07902,-0.000135,-0.129103,-3.140492,0.000464,-0.415979,-0.000036,-0.07317,-0.00006,-9.59115,0.000089,0.134789,-0.000061,0.263273,settle,P0
0.36015,-0.09832,0.00006,0.01033,0.56981,-0.00078,-0.07636,-0.000131,-0.126226,-3.140492,0.000466,-0.414135,-0.000040,-0.07317,-0.00006,-9.59115,0.000086,0.132212,-0.000059,0.263307,settle,P0
0.37056,-0.09832,0.00006,0.01033,0.56981,-0.00078,-0.07636,-0.000131,-0.126226,-3.140492,0.000466,-0.414135,-0.000040,-0.07317,-0.00006,-9.59115,0.000086,0.132212,-0.000059,0.263307,settle,P0
0.38136,-0.09832,0.00006,0.01033,0.56981,-0.00078,-0.07636,-0.000131,-0.126226,-3.140492,0.000466,-0.414135,-0.000040,-0.94932,-0.00097,-9.70547,0.000086,0.132212,-0.000059,0.263307,settle,P0
0.39189,-0.10270,0.00006,0.01031,0.61194,-0.00083,-0.06989,-0.000128,-0.123128,-3.140493,0.000388,-0.356183,-0.000124,87.97719,0.09161,-0.39400,0.000087,0.126229,-0.000048,0.263527,settle,P0
0.40252,-0.12441,0.00006,0.01045,0.62053,-0.00084,-0.06092,-0.000113,-0.109927,-3.140499,0.000375,-0.350655,-0.000137,62.17033,0.06443,-3.48878,0.000075,0.114566,-0.000037,0.263563,settle,P0
0.41312,-0.13949,0.00006,0.01070,0.64523,-0.00086,-0.05344,-0.000104,-0.101925,-3.140503,0.000351,-0.329672,-0.000139,-0.17979,-0.00016,-9.67357,0.000068,0.106487,-0.000029,0.263711,settle,P0
0.42393,-0.13949,0.00006,0.01070,0.64523,-0.00086,-0.05344,-0.000104,-0.101925,-3.140503,0.000351,-0.329672,-0.000139,-0.06272,-0.00004,-9.67062,0.000068,0.106487,-0.000029,0.263711,settle,P0
0.43444,-0.13949,0.00006,0.01070,0.64523,-0.00086,-0.05344,-0.000104,-0.101925,-3.140503,0.000351,-0.329672,-0.000139,-0.06272,-0.00004,-9.67062,0.000068,0.106487,-0.000029,0.263711,settle,P0
0.44525,-0.13949,0.00006,0.01070,0.64523,-0.00086,-0.05344,-0.000104,-0.101925,-3.140503,0.000351,-0.329672,-0.000139,-0.06272,-0.00004,-9.67062,0.000068,0.106487,-0.000029,0.263711,settle,P0
0.45624,-0.14434,0.00006,0.01081,0.67901,-0.00090,-0.04915,-0.000101,-0.099548,-3.140504,0.000296,-0.285294,-0.000069,81.47991,0.08398,-3.32726,0.000069,0.101901,-0.000035,0.263861,settle,P0
0.46701,-0.14434,0.00006,0.01081,0.67901,-0.00090,-0.04915,-0.000101,-0.099548,-3.140504,0.000296,-0.285294,-0.000069,81.47991,0.08398,-3.32726,0.000069,0.101901,-0.000035,0.263861,settle,P0
0.47737,-0.16848,0.00006,0.01143,0.69512,-0.00092,-0.04065,-0.000090,-0.089072,-3.140508,0.000287,-0.279254,-0.000048,-0.13861,-0.00012,-9.71166,0.000060,0.092552,-0.000031,0.264022,settle,P0
0.48808,-0.18508,0.00006,0.01195,0.70551,-0.00093,-0.03511,-0.000083,-0.082465,-3.140510,0.000284,-0.275955,-0.000048,-0.05113,-0.00003,-9.70571,0.000054,0.086684,-0.000028,0.264148,settle,P0
0.49909,-0.18508,0.00006,0.01195,0.70551,-0.00093,-0.03511,-0.000083,-0.082465,-3.140510,0.000284,-0.275955,-0.000048,-0.05113,-0.00003,-9.70571,0.000054,0.086684,-0.000028,0.264148,settle,P0
0.50953,-0.18508,0.00006,0.01195,0.70551,-0.00093,-0.03511,-0.000083,-0.082465,-3.140510,0.000284,-0.275955,-0.000048,-0.05113,-0.00003,-9.70571,0.000054,0.086684,-0.000028,0.264148,settle,P0
0.52015,-0.18508,0.00006,0.01195,0.70551,-0.00093,-0.03511,-0.000083,-0.082465,-3.140510,0.000284,-0.275955,-0.000048,91.15648,0.09406,-1.57343,0.000054,0.086684,-0.000028,0.264148,settle,P0
0.53042,-0.19031,0.00006,0.01212,0.73245,-0.00096,-0.03120,-0.000081,-0.080443,-3.140510,0.000235,-0.236037,-0.000064,91.15648,0.09406,-1.57343,0.000055,0.082659,-0.000025,0.264300,settle,P0
0.54096,-0.21648,0.00006,0.01309,0.74327,-0.00097,-0.02372,-0.000071,-0.071635,-3.140513,0.000222,-0.230355,-0.000066,33.37722,0.03449,-6.49650,0.000048,0.074764,-0.000020,0.264495,settle,P0
0.55154,-0.23414,0.00006,0.01380,0.75326,-0.00098,-0.01869,-0.000066,-0.066207,-3.140515,0.000218,-0.228812,-0.000064,-0.01715,0.00001,-9.72488,0.000044,0.070011,-0.000017,0.264648,settle,P0
0.56183,-0.23414,0.00006,0.01380,0.75326,-0.00098,-0.01869,-0.000066,-0.066207,-3.140515,0.000218,-0.228812,-0.000064,-0.01715,0.00001,-9.72488,0.000044,0.070011,-0.000017,0.264648,settle,P0
0.57235,-0.23414,0.00006,0.01380,0.75326,-0.00098,-0.01869,-0.000066,-0.066207,-3.140515,0.000218,-0.228812,-0.000064,-0.01715,0.00001,-9.72488,0.000044,0.070011,-0.000017,0.264648,settle,P0
0.58285,-0.23414,0.00006,0.01380,0.75326,-0.00098,-0.01869,-0.000066,-0.066207,-3.140515,0.000218,-0.228812,-0.000064,-0.01715,0.00001,-9.72488,0.000044,0.070011,-0.000017,0.264648,settle,P0
0.59332,-0.23945,0.00006,0.01403,0.77443,-0.00100,-0.01561,-0.000065,-0.064647,-3.140515,0.000184,-0.189329,-0.000041,63.61765,0.06673,-4.49868,0.000045,0.066408,-0.000019,0.264774,settle,P0
0.60422,-0.23945,0.00006,0.01403,0.77443,-0.00100,-0.01561,-0.000065,-0.064647,-3.140515,0.000184,-0.189329,-0.000041,63.61765,0.06673,-4.49868,0.000045,0.066408,-0.000019,0.264774,settle,P0
0.61499,-0.28000,0.00006,0.01584,0.78712,-0.00101,-0.00673,-0.000055,-0.054567,-3.140519,0.000175,-0.181417,-0.000032,0.09264,0.00013,-9.74405,0.000037,0.057291,-0.000015,0.265059,settle,P0
0.62584,-0.28547,0.00006,0.01609,0.79063,-0.00102,-0.00546,-0.000053,-0.053314,-3.140519,0.000174,-0.180406,-0.000032,-0.05069,-0.00002,-9.75769,0.000036,0.056157,-0.000015,0.265104,settle,P0
0.63659,-0.28547,0.00006,0.01609,0.79063,-0.00102,-0.00546,-0.000053,-0.053314,-3.140519,0.000174,-0.180406,-0.000032,-0.05069,-0.00002,-9.75769,0.000036,0.056157,-0.000015,0.265104,settle,P0
0.64700,-0.28547,0.00006,0.01609,0.79063,-0.00102,-0.00546,-0.000053,-0.053314,-3.140519,0.000174,-0.180406,-0.000032,-0.05069,-0.00002,-9.75769,0.000036,0.056157,-0.000015,0.265104,settle,P0
0.65751,-0.29129,0.00006,0.01637,0.80752,-0.00104,-0.00326,-0.000052,-0.051992,-3.140519,0.000147,-0.154774,-0.000034,34.96788,0.03756,-7.76593,0.000036,0.053552,-0.000013,0.265195,settle,P0
0.66797,-0.29129,0.00006,0.01637,0.80752,-0.00104,-0.00326,-0.000052,-0.051992,-3.140519,0.000147,-0.154774,-0.000034,34.96788,0.03756,-7.76593,0.000036,0.053552,-0.000013,0.265195,settle,P0
0.67863,-0.33371,0.00006,0.01840,0.81743,-0.00105,0.00396,-0.000044,-0.043750,-3.140521,0.000138,-0.146524,-0.000031,22.22576,0.02403,-8.56683,0.000030,0.045995,-0.000010,0.265452,settle,P0
0.68921,-0.33371,0.00006,0.01840,0.81743,-0.00105,0.00396,-0.000044,-0.043750,-3.140521,0.000138,-0.146524,-0.000031,-0.03656,-0.00000,-9.78109,0.000030,0.045995,-0.000010,0.265452,settle,P0
0.69975,-0.33941,0.00006,0.01868,0.82017,-0.00105,0.00493,-0.000043,-0.042738,-3.140521,0.000137,-0.145615,-0.000030,-0.03656,-0.00000,-9.78109,0.000029,0.045074,-0.000010,0.265489,settle,P0
0.71039,-0.33941,0.00006,0.01868,0.82017,-0.00105,0.00493,-0.000043,-0.042738,-3.140521,0.000137,-0.145615,-0.000030,-0.03656,-0.00000,-9.78109,0.000029,0.045074,-0.000010,0.265489,settle,P0
0.72072,-0.33941,0.00006,0.01868,0.82017,-0.00105,0.00493,-0.000043,-0.042738,-3.140521,0.000137,-0.145615,-0.000030,34.30975,0.03822,-8.97311,0.000029,0.045074,-0.000010,0.265489,settle,P0
0.73142,-0.34539,0.00006,0.01897,0.83331,-0.00106,0.00628,-0.000042,-0.041686,-3.140522,0.000117,-0.124956,-0.000023,34.30975,0.03822,-8.97311,0.000029,0.042986,-0.000011,0.265544,settle,P0
0.74225,-0.37523,0.00006,0.02044,0.83837,-0.00107,0.01029,-0.000038,-0.037007,-3.140523,0.000111,-0.121535,-0.000021,18.40663,0.02071,-9.43081,0.000026,0.038769,-0.000008,0.265696,settle,P0
0.75260,-0.39480,0.00006,0.02141,0.84307,-0.00107,0.01274,-0.000035,-0.034182,-3.140523,0.000109,-0.120552,-0.000020,0.03877,0.00008,-9.79692,0.000024,0.036285,-0.000008,0.265792,settle,P0
0.76313,-0.39480,0.00006,0.02141,0.84307,-0.00107,0.01274,-0.000035,-0.034182,-3.140523,0.000109,-0.120552,-0.000020,-0.04964,-0.00002,-9.79985,0.000024,0.036285,-0.000008,0.265792,settle,P0
0.77334,-0.39480,0.00006,0.02141,0.84307,-0.00107,0.01274,-0.000035,-0.034182,-3.140523,0.000109,-0.120552,-0.000020,-0.04964,-0.00002,-9.79985,0.000024,0.036285,-0.000008,0.265792,settle,P0
0.78389,-0.39480,0.00006,0.02141,0.84307,-0.00107,0.01274,-0.000035,-0.034182,-3.140523,0.000109,-0.120552,-0.000020,-0.04964,-0.00002,-9.79985,0.000024,0.036285,-0.000008,0.265792,settle,P0
0.79427,-0.40105,0.00006,0.02171,0.85331,-0.00108,0.01336,-0.000034,-0.033319,-3.140524,0.000092,-0.099636,-0.000017,26.63229,0.03130,-10.50055,0.000024,0.034344,-0.000008,0.265815,settle,P0
0.80502,-0.43172,0.00006,0.02323,0.85720,-0.00108,0.01642,-0.000031,-0.029587,-3.140524,0.000089,-0.096486,-0.000017,26.63229,0.03130,-10.50055,0.000021,0.030957,-0.000007,0.265937,settle,P0
0.81528,-0.45176,0.00006,0.02420,0.86082,-0.00109,0.01818,-0.000029,-0.027359,-3.140525,0.000088,-0.094612,-0.000016,-0.04594,-0.00001,-9.81598,0.000020,0.028934,-0.000006,0.266008,settle,P0
0.82621,-0.45176,0.00006,0.02420,0.86082,-0.00109,0.01818,-0.000029,-0.027359,-3.140525,0.000088,-0.094612,-0.000016,-0.04594,-0.00001,-9.81598,0.000020,0.028934,-0.000006,0.266008,settle,P0
0.83664,-0.45176,0.00006,0.02420,0.86082,-0.00109,0.01818,-0.000029,-0.027359,-3.140525,0.000088,-0.094612,-0.000016,-0.04594,-0.00001,-9.81598,0.000020,0.028934,-0.000006,0.266008,settle,P0
0.84725,-0.45176,0.00006,0.02420,0.86082,-0.00109,0.01818,-0.000029,-0.027359,-3.140525,0.000088,-0.094612,-0.000016,-0.04594,-0.00001,-9.81598,0.000020,0.028934,-0.000006,0.266008,settle,P0
0.85773,-0.45176,0.00006,0.02420,0.86082,-0.00109,0.01818,-0.000029,-0.027359,-3.140525,0.000088,-0.094612,-0.000016,29.48402,0.03697,-12.53921,0.000020,0.028934,-0.000006,0.266008,settle,P0
0.86848,-0.45809,0.00006,0.02451,0.86874,-0.00109,0.01819,-0.000028,-0.026683,-3.140525,0.000074,-0.080054,-0.000014,29.48402,0.03697,-12.53921,0.000020,0.027519,-0.000006,0.266004,settle,P0
0.87939,-0.50359,0.00006,0.02667,0.87316,-0.00110,0.02144,-0.000024,-0.022409,-3.140526,0.000071,-0.078930,-0.000013,-0.00026,0.00005,-9.83171,0.000017,0.023781,-0.000005,0.266138,settle,P0
0.89038,-0.50965,0.00006,0.02695,0.87441,-0.00110,0.02177,-0.000024,-0.021865,-3.140526,0.000070,-0.078327,-0.000012,-0.04815,-0.00001,-9.82689,0.000016,0.023279,-0.000005,0.266152,settle,P0
0.90084,-0.50965,0.00006,0.02695,0.87441,-0.00110,0.02177,-0.000024,-0.021865,-3.140526,0.000070,-0.078327,-0.000012,-0.04815,-0.00001,-9.82689,0.000016,0.023279,-0.000005,0.266152,settle,P0
0.91162,-0.50965,0.00006,0.02695,0.87441,-0.00110,0.02177,-0.000024,-0.021865,-3.140526,0.000070,-0.078327,-0.000012,-0.04815,-0.00001,-9.82689,0.000016,0.023279,-0.000005,0.266152,settle,P0
0.92191,-0.50965,0.00006,0.02695,0.87441,-0.00110,0.02177,-0.000024,-0.021865,-3.140526,0.000070,-0.078327,-0.000012,-0.04815,-0.00001,-9.82689,0.000016,0.023279,-0.000005,0.266152,settle,P0
0.93277,-0.51621,0.00006,0.02726,0.88037,-0.00110,0.02140,-0.000023,-0.021285,-3.140526,0.000060,-0.065168,-0.000011,7.25856,0.01021,-11.22796,0.000016,0.022027,-0.000004,0.266130,settle,P0
0.94331,-0.56246,0.00006,0.02937,0.88374,-0.00110,0.02383,-0.000020,-0.017781,-3.140526,0.000057,-0.063240,-0.000010,-0.00503,0.00005,-9.84250,0.000014,0.018905,-0.000004,0.266233,settle,P0
0.95392,-0.56859,0.00006,0.02964,0.88466,-0.00110,0.02402,-0.000020,-0.017346,-3.140527,0.000057,-0.062742,-0.000010,-0.04023,-0.00000,-9.83572,0.000014,0.018502,-0.000004,0.266241,settle,P0
0.96436,-0.56859,0.00006,0.02964,0.88466,-0.00110,0.02402,-0.000020,-0.017346,-3.140527,0.000057,-0.062742,-0.000010,-0.04023,-0.00000,-9.83572,0.000014,0.018502,-0.000004,0.266241,settle,P0
0.97478,-0.56859,0.00006,0.02964,0.88466,-0.00110,0.02402,-0.000020,-0.017346,-3.140527,0.000057,-0.062742,-0.000010,-0.04023,-0.00000,-9.83572,0.000014,0.018502,-0.000004,0.266241,settle,P0
0.98530,-0.57500,0.00006,0.02992,0.88904,-0.00111,0.02329,-0.000019,-0.016908,-3.140527,0.000048,-0.051309,-0.000008,12.67343,0.01951,-13.46004,0.000014,0.017472,-0.000004,0.266202,settle,P0
0.99586,-0.57500,0.00006,0.02992,0.88904,-0.00111,0.02329,-0.000019,-0.016908,-3.140527,0.000048,-0.051309,-0.000008,12.67343,0.01951,-13.46004,0.000014,0.017472,-0.000004,0.266202,settle,P0
1.00648,-0.57500,0.00006,0.02992,0.88904,-0.00111,0.02329,-0.000019,-0.016908,-3.140527,0.000048,-0.051309,-0.000008,4.30134,0.00684,-11.16800,0.000014,0.017472,-0.000004,0.266202,settle,P0
1.01697,-0.62160,0.00006,0.03193,0.89151,-0.00111,0.02494,-0.000017,-0.014177,-3.140527,0.000047,-0.049137,-0.000007,-0.01393,0.00004,-9.84869,0.000012,0.014999,-0.000003,0.266274,settle,P0
1.02763,-0.62781,0.00006,0.03219,0.89219,-0.00111,0.02502,-0.000016,-0.013838,-3.140527,0.000046,-0.048805,-0.000008,-0.03959,-0.00000,-9.84078,0.000011,0.014689,-0.000003,0.266276,settle,P0
1.03818,-0.62781,0.00006,0.03219,0.89219,-0.00111,0.02502,-0.000016,-0.013838,-3.140527,0.000046,-0.048805,-0.000008,-0.03959,-0.00000,-9.84078,0.000011,0.014689,-0.000003,0.266276,settle,P0
1.04932,-0.62781,0.00006,0.03219,0.89219,-0.00111,0.02502,-0.000016,-0.013838,-3.140527,0.000046,-0.048805,-0.000008,-0.03959,-0.00000,-9.84078,0.000011,0.014689,-0.000003,0.266276,settle,P0
1.06031,-0.63418,0.00006,0.03245,0.89537,-0.00111,0.02411,-0.000016,-0.013490,-3.140528,0.000039,-0.041667,-0.000007,8.21291,0.01461,-13.34496,0.000011,0.013981,-0.000002,0.266229,settle,P0
1.07078,-0.66660,0.00006,0.03377,0.89591,-0.00111,0.02526,-0.000015,-0.011919,-3.140528,0.000039,-0.040847,-0.000007,-0.08052,-0.00007,-9.82539,0.000010,0.012584,-0.000002,0.266282,settle,P0
1.08131,-0.68105,0.00006,0.03435,0.89710,-0.00111,0.02527,-0.000014,-0.011278,-3.140528,0.000038,-0.039302,-0.000006,-0.02410,0.00003,-9.85029,0.000010,0.011945,-0.000002,0.266281,settle,P0
1.09198,-0.68730,0.00006,0.03459,0.89757,-0.00111,0.02528,-0.000014,-0.011008,-3.140528,0.000038,-0.039007,-0.000005,-0.04404,-0.00001,-9.84089,0.000010,0.011696,-0.000002,0.266280,settle,P0
1.10241,-0.68730,0.00006,0.03459,0.89757,-0.00111,0.02528,-0.000014,-0.011008,-3.140528,0.000038,-0.039007,-0.000005,-0.04404,-0.00001,-9.84089,0.000010,0.011696,-0.000002,0.266280,settle,P0
1.11324,-0.68730,0.00006,0.03459,0.89757,-0.00111,0.02528,-0.000014,-0.011008,-3.140528,0.000038,-0.039007,-0.000005,-0.04404,-0.00001,-9.84089,0.000010,0.011696,-0.000002,0.266280,settle,P0
1.12378,-0.69406,0.00006,0.03485,0.89981,-0.00111,0.02425,-0.000013,-0.010721,-3.140528,0.000032,-0.032978,-0.000003,5.20334,0.01121,-13.16345,0.000010,0.011104,-0.000002,0.266228,settle,P0
1.13429,-0.72648,0.00006,0.03608,0.90060,-0.00111,0.02481,-0.000012,-0.009491,-3.140528,0.000031,-0.031939,-0.000003,5.20334,0.01121,-13.16345,0.000009,0.009987,-0.000002,0.266252,settle,P0
1.14466,-0.72648,0.00006,0.03608,0.90060,-0.00111,0.02481,-0.000012,-0.009491,-3.140528,0.000031,-0.031939,-0.000003,-0.02917,0.00002,-9.85129,0.000009,0.009987,-0.000002,0.266252,settle,P0
1.15576,-0.74125,0.00006,0.03663,0.90099,-0.00111,0.02499,-0.000012,-0.008972,-3.140528,0.000031,-0.031496,-0.000004,-0.04210,-0.00001,-9.84241,0.000008,0.009516,-0.000002,0.266260,settle,P0
1.16639,-0.74750,0.00006,0.03686,0.90131,-0.00111,0.02494,-0.000011,-0.008760,-3.140528,0.000031,-0.030647,-0.000004,-0.04210,-0.00001,-9.84241,0.000008,0.009284,-0.000002,0.266257,settle,P0
1.17694,-0.74750,0.00006,0.03686,0.90131,-0.00111,0.02494,-0.000011,-0.008760,-3.140528,0.000031,-0.030647,-0.000004,-0.04210,-0.00001,-9.84241,0.000008,0.009284,-0.000002,0.266257,settle,P0
1.18754,-0.74750,0.00006,0.03686,0.90131,-0.00111,0.02494,-0.000011,-0.008760,-3.140528,0.000031,-0.030647,-0.000004,-0.04210,-0.00001,-9.84241,0.000008,0.009284,-0.000002,0.266257,settle,P0
1.19788,-0.75418,0.00006,0.03709,0.90277,-0.00111,0.02387,-0.000011,-0.008540,-3.140528,0.000026,-0.026183,-0.000005,3.58140,0.01004,-13.33128,0.000008,0.008840,-0.000001,0.266203,settle,P0
1.20823,-0.78660,0.00006,0.03824,0.90327,-0.00111,0.02420,-0.000010,-0.007571,-3.140528,0.000026,-0.025872,-0.000005,-0.03282,0.00002,-9.85236,0.000007,0.007989,-0.000001,0.266218,settle,P0
1.21864,-0.80773,0.00006,0.03896,0.90370,-0.00111,0.02423,-0.000010,-0.006967,-3.140528,0.000026,-0.025706,-0.000004,-0.04137,-0.00000,-9.84118,0.000007,0.007460,-0.000001,0.266218,settle,P0
1.22915,-0.80773,0.00006,0.03896,0.90370,-0.00111,0.02423,-0.000010,-0.006967,-3.140528,0.000026,-0.025706,-0.000004,-0.04137,-0.00000,-9.84118,0.000007,0.007460,-0.000001,0.266218,settle,P0
1.23946,-0.80773,0.00006,0.03896,0.90370,-0.00111,0.02423,-0.000010,-0.006967,-3.140528,0.000026,-0.025706,-0.000004,-0.04137,-0.00000,-9.84118,0.000007,0.007460,-0.000001,0.266218,settle,P0
1.25019,-0.80773,0.00006,0.03896,0.90370,-0.00111,0.02423,-0.000010,-0.006967,-3.140528,0.000026,-0.025706,-0.000004,-0.04137,-0.00000,-9.84118,0.000007,0.007460,-0.000001,0.266218,settle,P0
1.26087,-0.81441,0.00006,0.03918,0.90455,-0.00111,0.02325,-0.000009,-0.006783,-3.140528,0.000022,-0.021102,-0.000002,2.46020,0.01053,-13.71178,0.000007,0.007039,-0.000001,0.266169,settle,P0
1.27140,-0.84703,0.00006,0.04024,0.90480,-0.00111,0.02351,-0.000009,-0.005992,-3.140528,0.000021,-0.020365,-0.000002,1.05407,0.00521,-11.68430,0.000006,0.006317,-0.000001,0.266180,settle,P0
1.28207,-0.84703,0.00006,0.04024,0.90480,-0.00111,0.02351,-0.000009,-0.005992,-3.140528,0.000021,-0.020365,-0.000002,-0.03723,0.00002,-9.84244,0.000006,0.006317,-0.000001,0.266180,settle,P0
1.29248,-0.86801,0.00006,0.04091,0.90502,-0.00110,0.02351,-0.000008,-0.005526,-3.140529,0.000021,-0.019915,-0.000002,-0.04137,-0.00001,-9.83472,0.000006,0.005890,-0.000001,0.266180,settle,P0
1.30296,-0.86801,0.00006,0.04091,0.90502,-0.00110,0.02351,-0.000008,-0.005526,-3.140529,0.000021,-0.019915,-0.000002,-0.04137,-0.00001,-9.83472,0.000006,0.005890,-0.000001,0.266180,settle,P0
1.31340,-0.86801,0.00006,0.04091,0.90502,-0.00110,0.02351,-0.000008,-0.005526,-3.140529,0.000021,-0.019915,-0.000002,-0.04137,-0.00001,-9.83472,0.000006,0.005890,-0.000001,0.266180,settle,P0
1.32458,-0.86801,0.00006,0.04091,0.90502,-0.00110,0.02351,-0.000008,-0.005526,-3.140529,0.000021,-0.019915,-0.000002,1.39224,0.01399,-15.34931,0.000006,0.005890,-0.000001,0.266180,settle,P0
1.33514,-0.87488,0.00006,0.04113,0.90538,-0.00110,0.02263,-0.000008,-0.005380,-3.140529,0.000018,-0.016771,-0.000002,1.39224,0.01399,-15.34931,0.000006,0.005584,-0.000001,0.266136,settle,P0
1.34621,-0.92242,0.00006,0.04257,0.90547,-0.00110,0.02278,-0.000007,-0.004484,-3.140529,0.000018,-0.016480,-0.000002,-0.03971,0.00001,-9.84384,0.000005,0.004798,-0.000001,0.266142,settle,P0
1.35674,-0.92871,0.00006,0.04275,0.90548,-0.00110,0.02269,-0.000007,-0.004371,-3.140529,0.000018,-0.016345,-0.000001,-0.04064,-0.00000,-9.83607,0.000005,0.004693,-0.000001,0.266137,settle,P0
1.36731,-0.92871,0.00006,0.04275,0.90548,-0.00110,0.02269,-0.000007,-0.004371,-3.140529,0.000018,-0.016345,-0.000001,-0.04064,-0.00000,-9.83607,0.000005,0.004693,-0.000001,0.266137,settle,P0
1.37795,-0.92871,0.00006,0.04275,0.90548,-0.00110,0.02269,-0.000007,-0.004371,-3.140529,0.000018,-0.016345,-0.000001,-0.04064,-0.00000,-9.83607,0.000005,0.004693,-0.000001,0.266137,settle,P0
1.38842,-0.93535,0.00006,0.04295,0.90545,-0.00110,0.02187,-0.000007,-0.004252,-3.140529,0.000015,-0.013533,-0.000001,-0.42890,0.00760,-13.06622,0.000005,0.004430,-0.000001,0.266096,settle,P0
1.39899,-0.93535,0.00006,0.04295,0.90545,-0.00110,0.02187,-0.000007,-0.004252,-3.140529,0.000015,-0.013533,-0.000001,-0.42890,0.00760,-13.06622,0.000005,0.004430,-0.000001,0.266096,settle,P0
1.40962,-0.93535,0.00006,0.04295,0.90545,-0.00110,0.02187,-0.000007,-0.004252,-3.140529,0.000015,-0.013533,-0.000001,-0.33895,0.00351,-11.28353,0.000005,0.004430,-0.000001,0.266096,settle,P0
1.42009,-0.98285,0.00006,0.04430,0.90531,-0.00110,0.02195,-0.000006,-0.003531,-3.140529,0.000015,-0.012655,-0.000002,-0.04035,-0.00000,-9.83119,0.000004,0.003760,-0.000001,0.266099,settle,P0
1.43058,-0.98914,0.00006,0.04447,0.90526,-0.00110,0.02187,-0.000006,-0.003444,-3.140529,0.000015,-0.012557,-0.000002,-0.04035,-0.00000,-9.83119,0.000004,0.003679,-0.000001,0.266095,settle,P0
1.44113,-0.98914,0.00006,0.04447,0.90526,-0.00110,0.02187,-0.000006,-0.003444,-3.140529,0.000015,-0.012557,-0.000002,-0.04035,-0.00000,-9.83119,0.000004,0.003679,-0.000001,0.266095,settle,P0
1.45143,-0.98914,0.00006,0.04447,0.90526,-0.00110,0.02187,-0.000006,-0.003444,-3.140529,0.000015,-0.012557,-0.000002,-0.38540,0.00210,-10.71429,0.000004,0.003679,-0.000001,0.266095,settle,P0
1.46198,-0.99582,0.00006,0.04466,0.90492,-0.00109,0.02114,-0.000006,-0.003351,-3.140529,0.000013,-0.010722,-0.000002,-1.16674,0.00509,-12.13926,0.000004,0.003495,-0.000001,0.266058,settle,P0
1.47261,-1.02824,0.00006,0.04553,0.90472,-0.00109,0.02115,-0.000005,-0.002952,-3.140529,0.000012,-0.010221,-0.000002,-0.70165,0.00255,-10.97219,0.000004,0.003123,-0.000001,0.266059,settle,P0
1.48332,-1.04961,0.00006,0.04608,0.90450,-0.00109,0.02105,-0.000005,-0.002714,-3.140529,0.000012,-0.009962,-0.000002,-0.04384,0.00001,-9.83592,0.000004,0.002903,-0.000001,0.266053,settle,P0
1.49371,-1.04961,0.00006,0.04608,0.90450,-0.00109,0.02105,-0.000005,-0.002714,-3.140529,0.000012,-0.009962,-0.000002,-0.04041,-0.00000,-9.83010,0.000004,0.002903,-0.000001,0.266053,settle,P0
1.50418,-1.04961,0.00006,0.04608,0.90450,-0.00109,0.02105,-0.000005,-0.002714,-3.140529,0.000012,-0.009962,-0.000002,-0.04041,-0.00000,-9.83010,0.000004,0.002903,-0.000001,0.266053,settle,P0
1.51467,-1.04961,0.00006,0.04608,0.90450,-0.00109,0.02105,-0.000005,-0.002714,-3.140529,0.000012,-0.009962,-0.000002,-0.04041,-0.00000,-9.83010,0.000004,0.002903,-0.000001,0.266053,settle,P0
1.52515,-1.05609,0.00006,0.04625,0.90392,-0.00109,0.02037,-0.000005,-0.002644,-3.140529,0.000011,-0.008394,-0.000002,-1.97577,0.00472,-12.13906,0.000004,0.002753,-0.000001,0.266019,settle,P0
1.53581,-1.05609,0.00006,0.04625,0.90392,-0.00109,0.02037,-0.000005,-0.002644,-3.140529,0.000011,-0.008394,-0.000002,-1.97577,0.00472,-12.13906,0.000004,0.002753,-0.000001,0.266019,settle,P0
1.54658,-1.08852,0.00006,0.04708,0.90363,-0.00109,0.02034,-0.000005,-0.002331,-3.140529,0.000010,-0.008112,-0.000002,-0.04422,0.00001,-9.83249,0.000003,0.002468,-0.000001,0.266018,settle,P0
1.55745,-1.10957,0.00006,0.04759,0.90333,-0.00109,0.02022,-0.000004,-0.002145,-3.140529,0.000010,-0.007928,-0.000002,-0.03961,-0.00000,-9.82762,0.000003,0.002298,-0.000000,0.266012,settle,P0
1.56817,-1.10957,0.00006,0.04759,0.90333,-0.00109,0.02022,-0.000004,-0.002145,-3.140529,0.000010,-0.007928,-0.000002,-0.03961,-0.00000,-9.82762,0.000003,0.002298,-0.000000,0.266012,settle,P0
1.57845,-1.10957,0.00006,0.04759,0.90333,-0.00109,0.02022,-0.000004,-0.002145,-3.140529,0.000010,-0.007928,-0.000002,-0.03961,-0.00000,-9.82762,0.000003,0.002298,-0.000000,0.266012,settle,P0
1.58897,-1.10957,0.00006,0.04759,0.90333,-0.00109,0.02022,-0.000004,-0.002145,-3.140529,0.000010,-0.007928,-0.000002,-3.04622,0.00481,-12.31922,0.000003,0.002298,-0.000000,0.266012,settle,P0
1.59969,-1.11637,0.00006,0.04776,0.90255,-0.00108,0.01960,-0.000004,-0.002085,-3.140529,0.000009,-0.006744,-0.000001,-1.77079,0.00250,-11.22861,0.000003,0.002179,-0.000000,0.265981,settle,P0
1.60996,-1.14879,0.00006,0.04854,0.90212,-0.00108,0.01948,-0.000004,-0.001833,-3.140529,0.000009,-0.006506,-0.000000,-1.77079,0.00250,-11.22861,0.000003,0.001948,-0.000000,0.265974,settle,P0
1.62042,-1.17016,0.00006,0.04903,0.90181,-0.00108,0.01938,-0.000004,-0.001680,-3.140529,0.000009,-0.006443,-0.000000,-0.03981,-0.00000,-9.82758,0.000003,0.001813,-0.000000,0.265969,settle,P0
1.63083,-1.17016,0.00006,0.04903,0.90181,-0.00108,0.01938,-0.000004,-0.001680,-3.140529,0.000009,-0.006443,-0.000000,-0.03981,-0.00000,-9.82758,0.000003,0.001813,-0.000000,0.265969,settle,P0
1.64150,-1.17016,0.00006,0.04903,0.90181,-0.00108,0.01938,-0.000004,-0.001680,-3.140529,0.000009,-0.006443,-0.000000,-0.03981,-0.00000,-9.82758,0.000003,0.001813,-0.000000,0.265969,settle,P0
1.65208,-1.17016,0.00006,0.04903,0.90181,-0.00108,0.01938,-0.000004,-0.001680,-3.140529,0.000009,-0.006443,-0.000000,-0.03981,-0.00000,-9.82758,0.000003,0.001813,-0.000000,0.265969,settle,P0
1.66272,-1.17668,0.00006,0.04918,0.90089,-0.00108,0.01882,-0.000004,-0.001634,-3.140529,0.000007,-0.005267,-0.000001,-3.02766,0.00344,-11.66675,0.000003,0.001706,-0.000000,0.265942,settle,P0
1.67299,-1.17668,0.00006,0.04918,0.90089,-0.00108,0.01882,-0.000004,-0.001634,-3.140529,0.000007,-0.005267,-0.000001,-2.10322,0.00218,-10.96480,0.000003,0.001706,-0.000000,0.265942,settle,P0
1.68383,-1.22418,0.00006,0.05025,0.90024,-0.00108,0.01871,-0.000003,-0.001353,-3.140529,0.000007,-0.005005,-0.000001,-0.04007,-0.00000,-9.82419,0.000002,0.001450,-0.000000,0.265935,settle,P0
1.69422,-1.23043,0.00006,0.05039,0.90004,-0.00107,0.01863,-0.000003,-0.001318,-3.140529,0.000007,-0.004958,-0.000001,-0.04007,-0.00000,-9.82419,0.000002,0.001417,-0.000000,0.265932,settle,P0
1.70485,-1.23043,0.00006,0.05039,0.90004,-0.00107,0.01863,-0.000003,-0.001318,-3.140529,0.000007,-0.004958,-0.000001,-0.04007,-0.00000,-9.82419,0.000002,0.001417,-0.000000,0.265932,settle,P0
1.71526,-1.23043,0.00006,0.05039,0.90004,-0.00107,0.01863,-0.000003,-0.001318,-3.140529,0.000007,-0.004958,-0.000001,-0.04007,-0.00000,-9.82419,0.000002,0.001417,-0.000000,0.265932,settle,P0
1.72592,-1.23043,0.00006,0.05039,0.90004,-0.00107,0.01863,-0.000003,-0.001318,-3.140529,0.000007,-0.004958,-0.000001,-3.99961,0.00344,-11.74510,0.000002,0.001417,-0.000000,0.265932,settle,P0
1.73655,-1.23684,0.00006,0.05053,0.89901,-0.00107,0.01815,-0.000003,-0.001283,-3.140529,0.000007,-0.004197,-0.000001,-1.54672,0.00124,-10.56452,0.000002,0.001343,-0.000000,0.265908,settle,P0
1.74711,-1.28406,0.00006,0.05155,0.89829,-0.00107,0.01801,-0.000003,-0.001058,-3.140529,0.000006,-0.004043,-0.000001,-0.04720,0.00001,-9.82824,0.000002,0.001141,-0.000000,0.265900,settle,P0
1.75735,-1.29031,0.00006,0.05168,0.89808,-0.00107,0.01792,-0.000003,-0.001030,-3.140529,0.000006,-0.004047,-0.000001,-0.03983,-0.00000,-9.82481,0.000002,0.001117,-0.000000,0.265896,settle,P0
1.76798,-1.29031,0.00006,0.05168,0.89808,-0.00107,0.01792,-0.000003,-0.001030,-3.140529,0.000006,-0.004047,-0.000001,-0.03983,-0.00000,-9.82481,0.000002,0.001117,-0.000000,0.265896,settle,P0
1.77864,-1.29031,0.00006,0.05168,0.89808,-0.00107,0.01792,-0.000003,-0.001030,-3.140529,0.000006,-0.004047,-0.000001,-0.03983,-0.00000,-9.82481,0.000002,0.001117,-0.000000,0.265896,settle,P0
1.78907,-1.29031,0.00006,0.05168,0.89808,-0.00107,0.01792,-0.000003,-0.001030,-3.140529,0.000006,-0.004047,-0.000001,-3.63652,0.00242,-11.26128,0.000002,0.001117,-0.000000,0.265896,settle,P0
1.79968,-1.29680,0.00006,0.05182,0.89694,-0.00107,0.01747,-0.000003,-0.001001,-3.140529,0.000006,-0.003319,-0.000001,-3.63652,0.00242,-11.26128,0.000002,0.001051,-0.000000,0.265874,settle,P0
1.81025,-1.34422,0.00006,0.05279,0.89617,-0.00106,0.01732,-0.000002,-0.000822,-3.140529,0.000005,-0.003181,-0.000001,-2.66057,0.00165,-10.86957,0.000002,0.000889,-0.000000,0.265866,settle,P0
1.82053,-1.34422,0.00006,0.05279,0.89617,-0.00106,0.01732,-0.000002,-0.000822,-3.140529,0.000005,-0.003181,-0.000001,-0.04042,-0.00000,-9.82231,0.000002,0.000889,-0.000000,0.265866,settle,P0
1.83119,-1.35043,0.00006,0.05292,0.89594,-0.00106,0.01725,-0.000002,-0.000800,-3.140529,0.000005,-0.003155,-0.000001,-0.04042,-0.00000,-9.82231,0.000002,0.000868,-0.000000,0.265863,settle,P0
1.84143,-1.35043,0.00006,0.05292,0.89594,-0.00106,0.01725,-0.000002,-0.000800,-3.140529,0.000005,-0.003155,-0.000001,-0.04042,-0.00000,-9.82231,0.000002,0.000868,-0.000000,0.265863,settle,P0
1.85192,-1.35676,0.00006,0.05304,0.89475,-0.00106,0.01688,-0.000002,-0.000779,-3.140529,0.000005,-0.002554,-0.000001,-5.39477,0.00287,-11.53266,0.000002,0.000816,-0.000000,0.265844,settle,P0
1.86256,-1.35676,0.00006,0.05304,0.89475,-0.00106,0.01688,-0.000002,-0.000779,-3.140529,0.000005,-0.002554,-0.000001,-5.39477,0.00287,-11.53266,0.000002,0.000816,-0.000000,0.265844,settle,P0
1.87326,-1.38879,0.00006,0.05368,0.89423,-0.00106,0.01680,-0.000002,-0.000683,-3.140529,0.000005,-0.002464,-0.000001,-2.04554,0.00102,-10.42147,0.000002,0.000728,-0.000000,0.265840,settle,P0
1.88400,-1.40363,0.00006,0.05396,0.89394,-0.00106,0.01676,-0.000002,-0.000643,-3.140529,0.000005,-0.002426,-0.000001,-0.03750,-0.00000,-9.81898,0.000001,0.000692,-0.000000,0.265838,settle,P0
1.89462,-1.40984,0.00006,0.05409,0.89371,-0.00106,0.01670,-0.000002,-0.000626,-3.140529,0.000004,-0.002406,-0.000001,-0.03750,-0.00000,-9.81898,0.000001,0.000676,-0.000000,0.265835,settle,P0
1.90517,-1.40984,0.00006,0.05409,0.89371,-0.00106,0.01670,-0.000002,-0.000626,-3.140529,0.000004,-0.002406,-0.000001,-0.03750,-0.00000,-9.81898,0.000001,0.000676,-0.000000,0.265835,settle,P0
1.91554,-1.40984,0.00006,0.05409,0.89371,-0.00106,0.01670,-0.000002,-0.000626,-3.140529,0.000004,-0.002406,-0.000001,-0.03750,-0.00000,-9.81898,0.000001,0.000676,-0.000000,0.265835,settle,P0
1.92603,-1.41664,0.00006,0.05422,0.89245,-0.00105,0.01637,-0.000002,-0.000608,-3.140529,0.000004,-0.002015,-0.000001,-4.09909,0.00175,-10.94290,0.000001,0.000638,0.000000,0.265819,settle,P0
1.93643,-1.44852,0.00006,0.05483,0.89191,-0.00105,0.01629,-0.000002,-0.000534,-3.140529,0.000004,-0.001941,-0.000001,-4.09909,0.00175,-10.94290,0.000001,0.000570,0.000000,0.265815,settle,P0
1.94721,-1.44852,0.00006,0.05483,0.89191,-0.00105,0.01629,-0.000002,-0.000534,-3.140529,0.000004,-0.001941,-0.000001,-0.03794,-0.00000,-9.81828,0.000001,0.000570,0.000000,0.265815,settle,P0
1.95773,-1.46938,0.00006,0.05522,0.89137,-0.00105,0.01620,-0.000002,-0.000489,-3.140529,0.000004,-0.001855,-0.000000,-0.03794,-0.00000,-9.81828,0.000001,0.000527,0.000000,0.265810,settle,P0
1.96822,-1.46938,0.00006,0.05522,0.89137,-0.00105,0.01620,-0.000002,-0.000489,-3.140529,0.000004,-0.001855,-0.000000,-0.03794,-0.00000,-9.81828,0.000001,0.000527,0.000000,0.265810,settle,P0
1.97866,-1.46938,0.00006,0.05522,0.89137,-0.00105,0.01620,-0.000002,-0.000489,-3.140529,0.000004,-0.001855,-0.000000,-0.03794,-0.00000,-9.81828,0.000001,0.000527,0.000000,0.265810,settle,P0
1.98911,-1.46938,0.00006,0.05522,0.89137,-0.00105,0.01620,-0.000002,-0.000489,-3.140529,0.000004,-0.001855,-0.000000,-0.03794,-0.00000,-9.81828,0.000001,0.000527,0.000000,0.265810,settle,P0
1.99991,-1.47598,0.00006,0.05534,0.89007,-0.00105,0.01589,-0.000002,-0.000476,-3.140529,0.000003,-0.001570,0.000000,-2.16151,0.00072,-10.35011,0.000001,0.000499,0.000000,0.265795,settle,P0
2.01105,-1.52262,0.00006,0.05619,0.88922,-0.00105,0.01575,-0.000002,-0.000392,-3.140529,0.000003,-0.001546,0.000000,-0.04750,0.00000,-9.82113,0.000001,0.000425,0.000000,0.265788,settle,P0
2.02131,-1.52879,0.00006,0.05630,0.88897,-0.00104,0.01570,-0.000001,-0.000381,-3.140529,0.000003,-0.001532,0.000000,-0.03853,-0.00000,-9.81844,0.000001,0.000416,0.000000,0.265785,settle,P0
2.03181,-1.52879,0.00006,0.05630,0.88897,-0.00104,0.01570,-0.000001,-0.000381,-3.140529,0.000003,-0.001532,0.000000,-0.03853,-0.00000,-9.81844,0.000001,0.000416,0.000000,0.265785,settle,P0
2.04212,-1.52879,0.00006,0.05630,0.88897,-0.00104,0.01570,-0.000001,-0.000381,-3.140529,0.000003,-0.001532,0.000000,-0.03853,-0.00000,-9.81844,0.000001,0.000416,0.000000,0.265785,settle,P0
2.05281,-1.52879,0.00006,0.05630,0.88897,-0.00104,0.01570,-0.000001,-0.000381,-3.140529,0.000003,-0.001532,0.000000,-0.03853,-0.00000,-9.81844,0.000001,0.000416,0.000000,0.265785,settle,P0
2.06331,-1.53523,0.00006,0.05642,0.88765,-0.00104,0.01543,-0.000001,-0.000371,-3.140529,0.000003,-0.001237,0.000000,-3.91652,0.00112,-10.61597,0.000001,0.000389,0.000000,0.265772,settle,P0
2.07384,-1.53523,0.00006,0.05642,0.88765,-0.00104,0.01543,-0.000001,-0.000371,-3.140529,0.000003,-0.001237,0.000000,-1.80827,0.00049,-10.15917,0.000001,0.000389,0.000000,0.265772,settle,P0
2.08443,-1.58172,0.00006,0.05724,0.88678,-0.00104,0.01532,-0.000001,-0.000305,-3.140529,0.000003,-0.001175,0.000000,-0.03734,-0.00000,-9.81636,0.000001,0.000330,0.000000,0.265766,settle,P0
2.09496,-1.58789,0.00006,0.05734,0.88652,-0.00104,0.01528,-0.000001,-0.000297,-3.140529,0.000003,-0.001165,0.000000,-0.03734,-0.00000,-9.81636,0.000001,0.000322,0.000000,0.265764,settle,P0
2.10539,-1.58789,0.00006,0.05734,0.88652,-0.00104,0.01528,-0.000001,-0.000297,-3.140529,0.000003,-0.001165,0.000000,-0.03734,-0.00000,-9.81636,0.000001,0.000322,0.000000,0.265764,settle,P0
2.11587,-1.58789,0.00006,0.05734,0.88652,-0.00104,0.01528,-0.000001,-0.000297,-3.140529,0.000003,-0.001165,0.000000,-0.03734,-0.00000,-9.81636,0.000001,0.000322,0.000000,0.265764,settle,P0
2.12653,-1.59453,0.00006,0.05746,0.88518,-0.00104,0.01505,-0.000001,-0.000288,-3.140529,0.000002,-0.000984,0.000000,-4.11950,0.00096,-10.53605,0.000001,0.000304,0.000000,0.265752,settle,P0
2.14184,-1.59453,0.00006,0.05746,0.88518,-0.00104,0.01505,-0.000001,-0.000288,-3.140529,0.000002,-0.000984,0.000000,-2.03944,0.00045,-10.15186,0.000001,0.000304,0.000000,0.265752,settle,P0
2.15408,-1.64102,0.00006,0.05827,0.88409,-0.00103,0.01491,-0.000001,-0.000236,-3.140529,0.000003,-0.000910,0.000000,-1.51911,0.00031,-10.05600,0.000001,0.000255,-0.000000,0.265746,settle,P0
2.16434,-1.64102,0.00006,0.05827,0.88409,-0.00103,0.01491,-0.000001,-0.000236,-3.140529,0.000003,-0.000910,0.000000,-1.51911,0.00031,-10.05600,0.000001,0.000255,-0.000000,0.265746,settle,P0
2.17491,-1.65047,0.00006,0.05844,0.88331,-0.00103,0.01480,-0.000001,-0.000226,-3.140529,0.000002,-0.000830,-0.000000,-0.04454,0.00000,-9.81649,0.000001,0.000242,-0.000000,0.265740,settle,P0
2.18536,-1.65047,0.00006,0.05844,0.88331,-0.00103,0.01480,-0.000001,-0.000226,-3.140529,0.000002,-0.000830,-0.000000,-0.04454,0.00000,-9.81649,0.000001,0.000242,-0.000000,0.265740,settle,P0
2.19580,-1.67699,0.00006,0.05889,0.88276,-0.00103,0.01474,-0.000001,-0.000202,-3.140529,0.000003,-0.000777,-0.000001,-0.03867,-0.00000,-9.81565,0.000001,0.000218,0.000000,0.265737,settle,P0
2.20658,-1.67699,0.00006,0.05889,0.88276,-0.00103,0.01474,-0.000001,-0.000202,-3.140529,0.000003,-0.000777,-0.000001,-0.03867,-0.00000,-9.81565,0.000001,0.000218,0.000000,0.265737,settle,P0
2.21704,-1.67699,0.00006,0.05889,0.88276,-0.00103,0.01474,-0.000001,-0.000202,-3.140529,0.000003,-0.000777,-0.000001,-0.03867,-0.00000,-9.81565,0.000001,0.000218,0.000000,0.265737,settle,P0
2.22757,-1.68324,0.00006,0.05900,0.88143,-0.00103,0.01455,-0.000001,-0.000197,-3.140529,0.000002,-0.000665,-0.000000,-5.94247,0.00100,-10.66943,0.000001,0.000207,0.000000,0.265727,settle,P0
2.23826,-1.68324,0.00006,0.05900,0.88143,-0.00103,0.01455,-0.000001,-0.000197,-3.140529,0.000002,-0.000665,-0.000000,-5.94247,0.00100,-10.66943,0.000001,0.000207,0.000000,0.265727,settle,P0
2.24927,-1.72926,0.00006,0.05977,0.88052,-0.00102,0.01445,-0.000001,-0.000161,-3.140529,0.000002,-0.000637,0.000000,-0.03744,-0.00000,-9.81480,0.000001,0.000175,0.000000,0.265723,settle,P0
2.25981,-1.73535,0.00006,0.05987,0.88026,-0.00102,0.01442,-0.000001,-0.000157,-3.140529,0.000002,-0.000630,0.000000,-0.03744,-0.00000,-9.81480,0.000001,0.000171,0.000000,0.265721,settle,P0
2.27039,-1.73535,0.00006,0.05987,0.88026,-0.00102,0.01442,-0.000001,-0.000157,-3.140529,0.000002,-0.000630,0.000000,-0.03744,-0.00000,-9.81480,0.000001,0.000171,0.000000,0.265721,settle,P0
2.28083,-1.73535,0.00006,0.05987,0.88026,-0.00102,0.01442,-0.000001,-0.000157,-3.140529,0.000002,-0.000630,0.000000,-0.03744,-0.00000,-9.81480,0.000001,0.000171,0.000000,0.265721,settle,P0
2.29133,-1.74184,0.00006,0.05998,0.87890,-0.00102,0.01425,-0.000001,-0.000152,-3.140529,0.000002,-0.000529,0.000000,-5.04666,0.00067,-10.44577,0.000001,0.000161,0.000000,0.265712,settle,P0
2.30199,-1.74184,0.00006,0.05998,0.87890,-0.00102,0.01425,-0.000001,-0.000152,-3.140529,0.000002,-0.000529,0.000000,-2.26060,0.00028,-10.07968,0.000001,0.000161,0.000000,0.265712,settle,P0
2.31273,-1.78781,0.00006,0.06073,0.87800,-0.00102,0.01417,-0.000001,-0.000124,-3.140529,0.000002,-0.000493,-0.000000,-0.04711,0.00000,-9.81531,0.000001,0.000135,0.000000,0.265708,settle,P0
2.32341,-1.78781,0.00006,0.06073,0.87800,-0.00102,0.01417,-0.000001,-0.000124,-3.140529,0.000002,-0.000493,-0.000000,-0.03723,-0.00000,-9.81413,0.000001,0.000135,0.000000,0.265708,settle,P0
2.33412,-1.79391,0.00006,0.06083,0.87773,-0.00102,0.01414,-0.000001,-0.000121,-3.140529,0.000002,-0.000488,-0.000000,-0.03723,-0.00000,-9.81413,0.000001,0.000132,0.000000,0.265707,settle,P0
2.34441,-1.79391,0.00006,0.06083,0.87773,-0.00102,0.01414,-0.000001,-0.000121,-3.140529,0.000002,-0.000488,-0.000000,-0.03723,-0.00000,-9.81413,0.000001,0.000132,0.000000,0.265707,settle,P0
2.35461,-1.80031,0.00006,0.06093,0.87636,-0.00102,0.01399,-0.000001,-0.000117,-3.140529,0.000002,-0.000411,0.000000,-3.98710,0.00042,-10.24320,0.000001,0.000124,0.000000,0.265700,settle,P0
2.36508,-1.80031,0.00006,0.06093,0.87636,-0.00102,0.01399,-0.000001,-0.000117,-3.140529,0.000002,-0.000411,0.000000,-3.98710,0.00042,-10.24320,0.000001,0.000124,0.000000,0.265700,settle,P0
2.37601,-1.83195,0.00006,0.06144,0.87578,-0.00101,0.01394,-0.000001,-0.000102,-3.140529,0.000001,-0.000390,0.000000,-0.04629,0.00000,-9.81455,0.000001,0.000110,0.000000,0.265697,settle,P0
2.38629,-1.85234,0.00006,0.06176,0.87520,-0.00101,0.01389,-0.000001,-0.000093,-3.140529,0.000001,-0.000379,0.000000,-0.03645,-0.00000,-9.81354,0.000000,0.000101,0.000000,0.265695,settle,P0
2.39701,-1.85234,0.00006,0.06176,0.87520,-0.00101,0.01389,-0.000001,-0.000093,-3.140529,0.000001,-0.000379,0.000000,-0.03645,-0.00000,-9.81354,0.000000,0.000101,0.000000,0.265695,settle,P0
2.40757,-1.85234,0.00006,0.06176,0.87520,-0.00101,0.01389,-0.000001,-0.000093,-3.140529,0.000001,-0.000379,0.000000,-0.03645,-0.00000,-9.81354,0.000000,0.000101,0.000000,0.265695,settle,P0
2.41803,-1.85234,0.00006,0.06176,0.87520,-0.00101,0.01389,-0.000001,-0.000093,-3.140529,0.000001,-0.000379,0.000000,-4.47963,0.00036,-10.23058,0.000000,0.000101,0.000000,0.265695,settle,P0
2.42837,-1.85879,0.00006,0.06187,0.87383,-0.00101,0.01377,-0.000001,-0.000090,-3.140529,0.000001,-0.000315,0.000000,-4.47963,0.00036,-10.23058,0.000000,0.000095,-0.000000,0.265688,settle,P0
2.43883,-1.89004,0.00006,0.06235,0.87325,-0.00101,0.01372,-0.000001,-0.000078,-3.140529,0.000001,-0.000303,-0.000000,-2.53153,0.00019,-10.03751,0.000000,0.000085,-0.000000,0.265686,settle,P0
2.44961,-1.91055,0.00006,0.06268,0.87267,-0.00101,0.01368,-0.000001,-0.000071,-3.140529,0.000001,-0.000294,-0.000000,-0.04711,0.00000,-9.81406,0.000000,0.000078,-0.000000,0.265684,settle,P0
2.45981,-1.91055,0.00006,0.06268,0.87267,-0.00101,0.01368,-0.000001,-0.000071,-3.140529,0.000001,-0.000294,-0.000000,-0.03555,-0.00000,-9.81303,0.000000,0.000078,-0.000000,0.265684,settle,P0
2.47042,-1.91055,0.00006,0.06268,0.87267,-0.00101,0.01368,-0.000001,-0.000071,-3.140529,0.000001,-0.000294,-0.000000,-0.03555,-0.00000,-9.81303,0.000000,0.000078,-0.000000,0.265684,settle,P0
2.48101,-1.91055,0.00006,0.06268,0.87267,-0.00101,0.01368,-0.000001,-0.000071,-3.140529,0.000001,-0.000294,-0.000000,-0.03555,-0.00000,-9.81303,0.000000,0.000078,-0.000000,0.265684,settle,P0
2.49154,-1.91715,0.00006,0.06278,0.87129,-0.00100,0.01357,-0.000001,-0.000069,-3.140529,0.000001,-0.000245,-0.000001,-4.02162,0.00024,-10.13992,0.000000,0.000074,0.000000,0.265678,settle,P0
2.50211,-1.91715,0.00006,0.06278,0.87129,-0.00100,0.01357,-0.000001,-0.000069,-3.140529,0.000001,-0.000245,-0.000001,-4.02162,0.00024,-10.13992,0.000000,0.000074,0.000000,0.265678,settle,P0
2.51273,-1.94840,0.00006,0.06327,0.87071,-0.00100,0.01353,-0.000001,-0.000060,-3.140529,0.000001,-0.000235,-0.000001,-0.04665,-0.00000,-9.81352,0.000000,0.000065,0.000000,0.265676,settle,P0
2.52318,-1.96875,0.00006,0.06358,0.87013,-0.00100,0.01349,-0.000001,-0.000056,-3.140529,0.000001,-0.000228,-0.000000,-0.03600,-0.00000,-9.81269,0.000000,0.000062,0.000000,0.265674,settle,P0
2.53368,-1.96875,0.00006,0.06358,0.87013,-0.00100,0.01349,-0.000001,-0.000056,-3.140529,0.000001,-0.000228,-0.000000,-0.03600,-0.00000,-9.81269,0.000000,0.000062,0.000000,0.265674,settle,P0
2.54396,-1.96875,0.00006,0.06358,0.87013,-0.00100,0.01349,-0.000001,-0.000056,-3.140529,0.000001,-0.000228,-0.000000,-0.03600,-0.00000,-9.81269,0.000000,0.000062,0.000000,0.265674,settle,P0
2.55440,-1.96875,0.00006,0.06358,0.87013,-0.00100,0.01349,-0.000001,-0.000056,-3.140529,0.000001,-0.000228,-0.000000,-5.67732,0.00023,-10.21517,0.000000,0.000062,0.000000,0.265674,settle,P0
2.56490,-1.97523,0.00006,0.06369,0.86876,-0.00100,0.01339,-0.000000,-0.000053,-3.140529,0.000001,-0.000195,0.000001,-5.67732,0.00023,-10.21517,0.000000,0.000056,-0.000000,0.265669,settle,P0
2.57546,-1.97523,0.00006,0.06369,0.86876,-0.00100,0.01339,-0.000000,-0.000053,-3.140529,0.000001,-0.000195,0.000001,-2.52002,0.00009,-9.99596,0.000000,0.000056,-0.000000,0.265669,settle,P0
2.58634,-2.02090,0.00006,0.06440,0.86786,-0.00100,0.01333,-0.000000,-0.000043,-3.140529,0.000001,-0.000187,0.000000,-0.04622,-0.00000,-9.81346,0.000000,0.000047,0.000000,0.265667,settle,P0
2.59695,-2.02691,0.00006,0.06449,0.86760,-0.00100,0.01331,-0.000000,-0.000043,-3.140529,0.000001,-0.000184,0.000000,-0.03721,-0.00000,-9.81265,0.000000,0.000047,0.000000,0.265666,settle,P0
2.60753,-2.02691,0.00006,0.06449,0.86760,-0.00100,0.01331,-0.000000,-0.000043,-3.140529,0.000001,-0.000184,0.000000,-0.03721,-0.00000,-9.81265,0.000000,0.000047,0.000000,0.265666,settle,P0
2.61819,-2.03320,0.00006,0.06459,0.86624,-0.00099,0.01323,-0.000000,-0.000040,-3.140529,0.000001,-0.000149,-0.000000,-0.03721,-0.00000,-9.81265,0.000000,0.000043,0.000000,0.265661,settle,P0
2.62916,-2.03320,0.00006,0.06459,0.86624,-0.00099,0.01323,-0.000000,-0.000040,-3.140529,0.000001,-0.000149,-0.000000,-4.48304,0.00011,-10.08288,0.000000,0.000043,0.000000,0.265661,settle,P0
2.63976,-2.03320,0.00006,0.06459,0.86624,-0.00099,0.01323,-0.000000,-0.000040,-3.140529,0.000001,-0.000149,-0.000000,-2.35725,0.00005,-9.94442,0.000000,0.000043,0.000000,0.265661,settle,P0
2.65013,-2.07859,0.00006,0.06529,0.86535,-0.00099,0.01318,-0.000000,-0.000032,-3.140529,0.000001,-0.000137,-0.000000,-0.04545,-0.00000,-9.81249,0.000000,0.000035,0.000000,0.265659,settle,P0
2.66095,-2.08461,0.00006,0.06539,0.86508,-0.00099,0.01317,-0.000000,-0.000032,-3.140529,0.000001,-0.000135,0.000000,-0.03510,-0.00000,-9.81191,0.000000,0.000035,0.000000,0.265658,settle,P0
2.67197,-2.08461,0.00006,0.06539,0.86508,-0.00099,0.01317,-0.000000,-0.000032,-3.140529,0.000001,-0.000135,0.000000,-0.03510,-0.00000,-9.81191,0.000000,0.000035,0.000000,0.265658,settle,P0
2.68244,-2.08461,0.00006,0.06539,0.86508,-0.00099,0.01317,-0.000000,-0.000032,-3.140529,0.000001,-0.000135,0.000000,-0.03510,-0.00000,-9.81191,0.000000,0.000035,0.000000,0.265658,settle,P0
2.69294,-2.09109,0.00006,0.06548,0.86372,-0.00099,0.01310,-0.000000,-0.000030,-3.140529,0.000001,-0.000114,0.000000,-4.35825,0.00005,-10.03718,0.000000,0.000033,0.000000,0.265655,settle,P0
2.70363,-2.12199,0.00006,0.06595,0.86314,-0.00099,0.01307,-0.000000,-0.000026,-3.140529,0.000001,-0.000108,0.000000,-4.35825,0.00005,-10.03718,0.000000,0.000029,-0.000000,0.265654,settle,P0
2.71464,-2.14227,0.00006,0.06625,0.86257,-0.00099,0.01305,-0.000000,-0.000024,-3.140529,0.000001,-0.000102,0.000000,-0.04651,-0.00000,-9.81225,0.000000,0.000026,-0.000000,0.265652,settle,P0
2.72533,-2.14227,0.00006,0.06625,0.86257,-0.00099,0.01305,-0.000000,-0.000024,-3.140529,0.000001,-0.000102,0.000000,-0.03543,-0.00000,-9.81166,0.000000,0.000026,-0.000000,0.265652,settle,P0
2.73569,-2.14227,0.00006,0.06625,0.86257,-0.00099,0.01305,-0.000000,-0.000024,-3.140529,0.000001,-0.000102,0.000000,-0.03543,-0.00000,-9.81166,0.000000,0.000026,-0.000000,0.265652,settle,P0
2.74637,-2.14227,0.00006,0.06625,0.86257,-0.00099,0.01305,-0.000000,-0.000024,-3.140529,0.000001,-0.000102,0.000000,-0.03543,-0.00000,-9.81166,0.000000,0.000026,-0.000000,0.265652,settle,P0
2.75686,-2.14227,0.00006,0.06625,0.86257,-0.00099,0.01305,-0.000000,-0.000024,-3.140529,0.000001,-0.000102,0.000000,-0.03543,-0.00000,-9.81166,0.000000,0.000026,-0.000000,0.265652,settle,P0
2.76758,-2.14863,0.00006,0.06635,0.86121,-0.00098,0.01298,-0.000000,-0.000024,-3.140529,0.000001,-0.000085,-0.000001,-5.19008,-0.00001,-10.04748,0.000000,0.000025,-0.000000,0.265649,settle,P0
2.77853,-2.17969,0.00006,0.06682,0.86063,-0.00098,0.01296,-0.000000,-0.000020,-3.140529,0.000001,-0.000084,-0.000001,-0.04484,-0.00000,-9.81220,0.000000,0.000022,0.000000,0.265648,settle,P0
2.80534,-2.19973,0.00006,0.06712,0.86006,-0.00098,0.01294,-0.000000,-0.000018,-3.140529,0.000001,-0.000083,-0.000001,-0.03616,-0.00000,-9.81169,0.000000,0.000020,0.000000,0.265647,settle,P0
2.81702,-2.19973,0.00006,0.06712,0.86006,-0.00098,0.01294,-0.000000,-0.000018,-3.140529,0.000001,-0.000083,-0.000001,-0.03616,-0.00000,-9.81169,0.000000,0.000020,0.000000,0.265647,settle,P0
2.82872,-2.20602,0.00006,0.06721,0.85870,-0.00098,0.01288,-0.000000,-0.000018,-3.140529,0.000001,-0.000066,0.000000,-4.42437,-0.00006,-9.98643,0.000000,0.000019,0.000000,0.265644,settle,P0
2.83919,-2.20602,0.00006,0.06721,0.85870,-0.00098,0.01288,-0.000000,-0.000018,-3.140529,0.000001,-0.000066,0.000000,-4.42437,-0.00006,-9.98643,0.000000,0.000019,0.000000,0.265644,settle,P0
2.84972,-2.23727,0.00006,0.06768,0.85801,-0.00098,0.01285,-0.000000,-0.000014,-3.140529,0.000001,-0.000062,0.000001,-0.03269,-0.00000,-9.81118,0.000000,0.000016,-0.000000,0.265643,settle,P0
2.86030,-2.25797,0.00006,0.06798,0.85753,-0.00097,0.01284,-0.000000,-0.000014,-3.140529,0.000001,-0.000061,0.000001,-0.03736,-0.00000,-9.81133,0.000000,0.000016,-0.000000,0.265642,settle,P0
2.87093,-2.25797,0.00006,0.06798,0.85753,-0.00097,0.01284,-0.000000,-0.000014,-3.140529,0.000001,-0.000061,0.000001,-0.03736,-0.00000,-9.81133,0.000000,0.000016,-0.000000,0.265642,settle,P0
2.88127,-2.25797,0.00006,0.06798,0.85753,-0.00097,0.01284,-0.000000,-0.000014,-3.140529,0.000001,-0.000061,0.000001,-0.03736,-0.00000,-9.81133,0.000000,0.000016,-0.000000,0.265642,settle,P0
2.89195,-2.25797,0.00006,0.06798,0.85753,-0.00097,0.01284,-0.000000,-0.000014,-3.140529,0.000001,-0.000061,0.000001,-3.39178,-0.00008,-9.92354,0.000000,0.000016,-0.000000,0.265642,settle,P0
2.90260,-2.26391,0.00006,0.06807,0.85622,-0.00097,0.01279,-0.000000,-0.000013,-3.140529,0.000000,-0.000053,0.000000,-2.44299,-0.00006,-9.89458,0.000000,0.000014,0.000000,0.265640,settle,P0
2.91308,-2.30832,0.00006,0.06875,0.85534,-0.00097,0.01277,-0.000000,-0.000011,-3.140529,0.000000,-0.000050,-0.000000,-0.04522,-0.00000,-9.81160,0.000000,0.000012,0.000000,0.265638,settle,P0
2.92365,-2.31426,0.00006,0.06884,0.85509,-0.00097,0.01276,-0.000000,-0.000011,-3.140529,0.000000,-0.000049,-0.000000,-0.03480,-0.00000,-9.81118,0.000000,0.000012,0.000000,0.265638,settle,P0
2.93415,-2.31426,0.00006,0.06884,0.85509,-0.00097,0.01276,-0.000000,-0.000011,-3.140529,0.000000,-0.000049,-0.000000,-0.03480,-0.00000,-9.81118,0.000000,0.000012,0.000000,0.265638,settle,P0
2.94456,-2.31426,0.00006,0.06884,0.85509,-0.00097,0.01276,-0.000000,-0.000011,-3.140529,0.000000,-0.000049,-0.000000,-0.03480,-0.00000,-9.81118,0.000000,0.000012,0.000000,0.265638,settle,P0
2.95489,-2.31426,0.00006,0.06884,0.85509,-0.00097,0.01276,-0.000000,-0.000011,-3.140529,0.000000,-0.000049,-0.000000,-0.03480,-0.00000,-9.81118,0.000000,0.000012,0.000000,0.265638,settle,P0
2.96544,-2.32055,0.00006,0.06893,0.85375,-0.00097,0.01272,-0.000000,-0.000011,-3.140529,0.000001,-0.000039,-0.000000,-4.06730,-0.00012,-9.92822,0.000000,0.000011,0.000000,0.265636,settle,P0
2.97617,-2.32055,0.00006,0.06893,0.85375,-0.00097,0.01272,-0.000000,-0.000011,-3.140529,0.000001,-0.000039,-0.000000,-0.04482,-0.00000,-9.81136,0.000000,0.000011,0.000000,0.265636,settle,P0
2.98642,-2.36527,0.00006,0.06960,0.85288,-0.00096,0.01269,-0.000000,-0.000007,-3.140529,0.000001,-0.000038,0.000000,-0.03427,-0.00000,-9.81099,0.000000,0.000009,0.000000,0.265635,settle,P0
2.99690,-2.37121,0.00006,0.06969,0.85262,-0.00096,0.01269,-0.000000,-0.000007,-3.140529,0.000000,-0.000038,0.000000,-0.03427,-0.00000,-9.81099,0.000000,0.000009,0.000000,0.265634,settle,P0
3.00760,-2.37121,0.00006,0.06969,0.85262,-0.00096,0.01269,-0.000000,-0.000007,-3.140529,0.000000,-0.000038,0.000000,-0.03427,-0.00000,-9.81099,0.000000,0.000009,0.000000,0.265634,settle,P0
3.01788,-2.37766,0.00006,0.06979,0.85129,-0.00096,0.01265,-0.000000,-0.000007,-3.140529,0.000000,-0.000030,0.000000,-3.84345,-0.00015,-9.90374,0.000000,0.000008,0.000000,0.265633,settle,P0
3.02835,-2.37766,0.00006,0.06979,0.85129,-0.00096,0.01265,-0.000000,-0.000007,-3.140529,0.000000,-0.000030,0.000000,-3.84345,-0.00015,-9.90374,0.000000,0.000008,0.000000,0.265633,settle,P0
3.03909,-2.37766,0.00006,0.06979,0.85129,-0.00096,0.01265,-0.000000,-0.000007,-3.140529,0.000000,-0.000030,0.000000,-2.62420,-0.00011,-9.86988,0.000000,0.000008,0.000000,0.265633,settle,P0
3.04939,-2.42242,0.00006,0.07047,0.85041,-0.00096,0.01263,-0.000000,-0.000005,-3.140529,0.000000,-0.000027,0.000000,-0.03096,-0.00000,-9.81070,0.000000,0.000006,0.000000,0.265632,settle,P0
3.06041,-2.42832,0.00006,0.07056,0.85015,-0.00096,0.01263,-0.000000,-0.000005,-3.140529,0.000000,-0.000027,0.000000,-0.03647,-0.00000,-9.81081,0.000000,0.000006,0.000000,0.265631,settle,P0
3.07084,-2.42832,0.00006,0.07056,0.85015,-0.00096,0.01263,-0.000000,-0.000005,-3.140529,0.000000,-0.000027,0.000000,-0.03647,-0.00000,-9.81081,0.000000,0.000006,0.000000,0.265631,settle,P0
3.08139,-2.42832,0.00006,0.07056,0.85015,-0.00096,0.01263,-0.000000,-0.000005,-3.140529,0.000000,-0.000027,0.000000,-0.03647,-0.00000,-9.81081,0.000000,0.000006,0.000000,0.265631,settle,P0
3.09197,-2.43426,0.00006,0.07064,0.84884,-0.00096,0.01260,-0.000000,-0.000005,-3.140529,0.000000,-0.000022,0.000000,-4.83177,-0.00023,-9.91235,0.000000,0.000006,0.000000,0.265630,settle,P0
3.10258,-2.46473,0.00006,0.07111,0.84828,-0.00096,0.01259,-0.000000,-0.000005,-3.140529,0.000000,-0.000021,0.000000,-4.83177,-0.00023,-9.91235,0.000000,0.000006,0.000000,0.265629,settle,P0
3.11307,-2.46473,0.00006,0.07111,0.84828,-0.00096,0.01259,-0.000000,-0.000005,-3.140529,0.000000,-0.000021,0.000000,-0.04397,-0.00000,-9.81087,0.000000,0.000006,0.000000,0.265629,settle,P0
3.12357,-2.47879,0.00006,0.07131,0.84797,-0.00095,0.01258,-0.000000,-0.000003,-3.140529,0.000000,-0.000020,0.000000,-0.03489,-0.00000,-9.81066,0.000000,0.000004,0.000000,0.265629,settle,P0
3.13414,-2.48469,0.00006,0.07140,0.84772,-0.00095,0.01258,-0.000000,-0.000003,-3.140529,0.000000,-0.000020,0.000000,-0.03489,-0.00000,-9.81066,0.000000,0.000004,0.000000,0.265629,settle,P0
3.14455,-2.48469,0.00006,0.07140,0.84772,-0.00095,0.01258,-0.000000,-0.000003,-3.140529,0.000000,-0.000020,0.000000,-0.03489,-0.00000,-9.81066,0.000000,0.000004,0.000000,0.265629,settle,P0
3.15478,-2.48469,0.00006,0.07140,0.84772,-0.00095,0.01258,-0.000000,-0.000003,-3.140529,0.000000,-0.000020,0.000000,-5.58978,-0.00031,-9.91350,0.000000,0.000004,0.000000,0.265629,settle,P0
3.16515,-2.49094,0.00006,0.07149,0.84640,-0.00095,0.01255,-0.000000,-0.000003,-3.140529,0.000001,-0.000015,0.000000,-5.58978,-0.00031,-9.91350,0.000000,0.000004,0.000000,0.265628,settle,P0
3.17590,-2.52141,0.00006,0.07193,0.84584,-0.00095,0.01254,-0.000000,-0.000003,-3.140529,0.000000,-0.000014,0.000000,-0.04368,-0.00000,-9.81086,0.000000,0.000004,0.000000,0.265627,settle,P0
3.18632,-2.54109,0.00006,0.07223,0.84529,-0.00095,0.01253,-0.000000,-0.000003,-3.140529,0.000000,-0.000014,0.000000,-0.03425,-0.00000,-9.81064,0.000000,0.000004,0.000000,0.265627,settle,P0
3.19707,-2.54109,0.00006,0.07223,0.84529,-0.00095,0.01253,-0.000000,-0.000003,-3.140529,0.000000,-0.000014,0.000000,-0.03425,-0.00000,-9.81064,0.000000,0.000004,0.000000,0.265627,settle,P0
3.20767,-2.54109,0.00006,0.07223,0.84529,-0.00095,0.01253,-0.000000,-0.000003,-3.140529,0.000000,-0.000014,0.000000,-0.03425,-0.00000,-9.81064,0.000000,0.000004,0.000000,0.265627,settle,P0
3.21793,-2.54109,0.00006,0.07223,0.84529,-0.00095,0.01253,-0.000000,-0.000003,-3.140529,0.000000,-0.000014,0.000000,-0.03425,-0.00000,-9.81064,0.000000,0.000004,0.000000,0.265627,settle,P0
3.22835,-2.54738,0.00006,0.07232,0.84398,-0.00095,0.01251,-0.000000,-0.000003,-3.140529,0.000000,-0.000013,0.000000,-4.70788,-0.00030,-9.88353,0.000000,0.000003,0.000000,0.265626,settle,P0
3.23894,-2.57766,0.00006,0.07276,0.84343,-0.00095,0.01250,-0.000000,-0.000002,-3.140529,0.000001,-0.000013,0.000000,-2.41234,-0.00016,-9.84508,0.000000,0.000002,-0.000000,0.265625,settle,P0
3.24924,-2.57766,0.00006,0.07276,0.84343,-0.00095,0.01250,-0.000000,-0.000002,-3.140529,0.000001,-0.000013,0.000000,-0.04266,-0.00000,-9.81061,0.000000,0.000002,-0.000000,0.265625,settle,P0
3.26002,-2.59727,0.00006,0.07305,0.84288,-0.00094,0.01250,-0.000000,-0.000002,-3.140529,0.000000,-0.000012,0.000000,-0.03438,-0.00000,-9.81048,0.000000,0.000002,-0.000000,0.265625,settle,P0
3.27031,-2.59727,0.00006,0.07305,0.84288,-0.00094,0.01250,-0.000000,-0.000002,-3.140529,0.000000,-0.000012,0.000000,-0.03438,-0.00000,-9.81048,0.000000,0.000002,-0.000000,0.265625,settle,P0
3.28050,-2.59727,0.00006,0.07305,0.84288,-0.00094,0.01250,-0.000000,-0.000002,-3.140529,0.000000,-0.000012,0.000000,-0.03438,-0.00000,-9.81048,0.000000,0.000002,-0.000000,0.265625,settle,P0
3.29090,-2.59727,0.00006,0.07305,0.84288,-0.00094,0.01250,-0.000000,-0.000002,-3.140529,0.000000,-0.000012,0.000000,-0.03438,-0.00000,-9.81048,0.000000,0.000002,-0.000000,0.265625,settle,P0
3.30165,-2.60352,0.00006,0.07314,0.84157,-0.00094,0.01248,-0.000000,-0.000002,-3.140529,0.000001,-0.000008,-0.000001,-4.30668,-0.00032,-9.86598,0.000000,0.000002,-0.000000,0.265624,settle,P0
3.31245,-2.64770,0.00006,0.07379,0.84072,-0.00094,0.01247,-0.000000,-0.000002,-3.140529,0.000001,-0.000008,-0.000001,-0.04390,-0.00000,-9.81061,0.000000,0.000002,-0.000000,0.265623,settle,P0
